{"scrapedAt":"2026-07-06T14:14:14.711Z","projects":[{"id":"fd3fa686-97cf-40bf-acd7-9ad9b6875de7","slug":"105-residences","name":"105 Residences","developer":"Kamdar Developments","area":"Jumeirah Village Circle, District 13, 105 Residences","city":"Dubai","lat":25.04981783928,"lng":55.20901801946,"minPriceAed":1275888,"handover":"Q2 2027","imageUrl":"/cdn/projects/105-residences/gallery/000.webp"},{"id":"61a78e63-ebee-4648-aa25-632f5b88f308","slug":"113-residences","name":"113 Residences","developer":"Iman Developers","area":"Al Sufouh","city":"Dubai","lat":25.11894,"lng":55.18355,"minPriceAed":1800000,"handover":"Q2 2029","imageUrl":"https://new-projects-media.propertyfinder.com/project/61a78e63-ebee-4648-aa25-632f5b88f308/gallery/image/tbLBZ5lsiPi-XnAMBsvChDG0VAcfhVhxTnKJNCTc0Ew=/medium.webp"},{"id":"5ac4584e-dead-4d7b-b9b6-4e2671fda73f","slug":"1wood-residence-phase-2-by-object-1","name":"1WOOD Residence Phase 2 By Object 1","developer":"Object 1","area":"Jumeirah Village Circle, District 14, 1WOOD Residence","city":"Dubai","lat":25.04867090812,"lng":55.20570879893,"minPriceAed":788117,"handover":"Q4 2027","imageUrl":"https://new-projects-media.propertyfinder.com/project/5ac4584e-dead-4d7b-b9b6-4e2671fda73f/gallery/image/DMhbmUF4ZakNkCzboFmbzoo7uOu_dTro4PRuhlBx3j4=/medium.webp"},{"id":"0a9b9394-bc95-4f30-a15a-0aefc97c31eb","slug":"311-boulevard","name":"311 Boulevard","developer":"Bam Eskan Real Estate","area":"Jumeirah Village Circle, District 13, 311 Boulevard","city":"Dubai","lat":25.05211517676,"lng":55.21293209325,"minPriceAed":750000,"handover":"Q4 2027","imageUrl":"https://new-projects-media.propertyfinder.com/project/0a9b9394-bc95-4f30-a15a-0aefc97c31eb/gallery/image/JpoCuRc9C1ufYN4w_85g-6ftNU8MFXFtP-REh18Ewp8=/medium.webp"},{"id":"8047f33a-ab77-4fce-9e0c-8a807f34a149","slug":"ab-cleo","name":"AB Cleo","developer":"AB Developers","area":"Jebel Ali","city":"Dubai","lat":25.034304,"lng":55.115443,"minPriceAed":708000,"handover":"Q1 2027","imageUrl":"https://new-projects-media.propertyfinder.com/project/8047f33a-ab77-4fce-9e0c-8a807f34a149/gallery/image/jXcZcjRQBs5aok0R6PU_qymlc9DWywv3KUgDaeWKHUo=/medium.webp"},{"id":"95ca1d31-33be-4dc8-8537-df1956db0f43","slug":"aelin","name":"Aelin","developer":"Zoya Developments","area":"Dubai Land Residence Complex","city":"Dubai","lat":25.09131078,"lng":55.37827688,"minPriceAed":750000,"handover":"Q3 2028","imageUrl":"https://new-projects-media.propertyfinder.com/project/95ca1d31-33be-4dc8-8537-df1956db0f43/gallery/image/V49WXr9JesWwSmEeBg87WFM0JGA5SvxRNxQRpVCz7Go=/medium.webp"},{"id":"6984715a-248d-4e6a-865c-1070e492eb96","slug":"al-aamra-tower","name":"Al Aamra Tower 1","developer":"GJ Real Estate","area":"Al Amerah, Al Aamra Tower","city":"Ajman","lat":25.3852017,"lng":55.577613,"minPriceAed":564000,"handover":"Q4 2027","imageUrl":"https://new-projects-media.propertyfinder.com/project/6984715a-248d-4e6a-865c-1070e492eb96/gallery/image/JQKensbfvl62tvA49dfzCEL5hLJggiY1HYAlTmrjpCs=/medium.webp"},{"id":"b119ea64-9d3a-402b-ad2a-985500a7ad9f","slug":"al-ghadeer-gardens","name":"Al Ghadeer Gardens","developer":"Aldar Properties PJSC","area":"Al Ghadeer","city":"Abu Dhabi","lat":24.8426667,"lng":55.0275697,"minPriceAed":1700000,"handover":"Q4 2029","imageUrl":"https://new-projects-media.propertyfinder.com/project/b119ea64-9d3a-402b-ad2a-985500a7ad9f/gallery/image/bDHALbqHLbL5chOYcdq0ntMUeMYXZHBdF1IrwAZQ--c=/medium.webp"},{"id":"27dfd4b9-30e0-4b72-b5a2-26e77d9b42c8","slug":"al-hamra-greens","name":"Al Hamra Greens","developer":"Al Hamra Real Estate Management Services","area":"Al Hamra Village, Al Hamra Greens","city":"Ras Al Khaimah","lat":25.691833,"lng":55.791253,"minPriceAed":1269000,"handover":"Q1 2028","imageUrl":"https://new-projects-media.propertyfinder.com/project/27dfd4b9-30e0-4b72-b5a2-26e77d9b42c8/gallery/image/1Pa8tUuD1wVIJfOr8QTkgQHOLBUb_gx0PgrKj5hZjAk=/medium.webp"},{"id":"3af584ed-cffa-4ebe-9a52-06d6b7dcbbc1","slug":"al-hamra-waterfront","name":"Al Hamra Waterfront","developer":"Al Hamra Real Estate Management Services","area":"Al Hamra Village, Al Hamra Waterfront","city":"Ras Al Khaimah","lat":25.696217,"lng":55.780274,"minPriceAed":1050000,"handover":"Q1 2027","imageUrl":"https://new-projects-media.propertyfinder.com/project/3af584ed-cffa-4ebe-9a52-06d6b7dcbbc1/gallery/image/m5qEsR81fHBVwenqvAplnY3pK4BvjMctSAFSdhnbDfY=/medium.webp"},{"id":"190b78ca-94cc-47db-adf1-cf33331fc937","slug":"al-haseen-residence-6","name":"Al Haseen Residence 6","developer":"Dugasta","area":"Dubai Industrial City, Saih Shuaib 2, Al Haseen Residences, Al Haseen Residences 1","city":"Dubai","lat":24.876184,"lng":55.049577,"minPriceAed":736256,"handover":"Q4 2027","imageUrl":"https://new-projects-media.propertyfinder.com/project/190b78ca-94cc-47db-adf1-cf33331fc937/gallery/image/Ass01eA0XNDrFr2l9HfsWxQVO9KmZ3hLF7nJz_XRK1A=/medium.webp"},{"id":"3c81e798-1b5b-44d7-b101-df6dae07dbc3","slug":"al-haseen-residences-5","name":"Al Haseen Residences Phase 5","developer":"Dugasta","area":"Dubai Industrial City, Saih Shuaib 2, Al Haseen Residences, Al Haseen Residences 1","city":"Dubai","lat":24.876184,"lng":55.049577,"minPriceAed":594000,"handover":"Q4 2026","imageUrl":"https://new-projects-media.propertyfinder.com/project/3c81e798-1b5b-44d7-b101-df6dae07dbc3/gallery/image/hx7Dv2UciogR5a6Z_mLmDnjsddL6n3hoYWyfYPaKWz0=/medium.webp"},{"id":"c85481e8-a636-4f8a-9ff2-ea9aa79abe5b","slug":"al-mamsha-hamsa","name":"Al Mamsha Hamsa","developer":"Alef Group","area":"Muwaileh, Al Mamsha, Hamsa","city":"Sharjah","lat":25.307932,"lng":55.467621,"minPriceAed":919000,"handover":"Q1 2029","imageUrl":"https://new-projects-media.propertyfinder.com/project/c85481e8-a636-4f8a-9ff2-ea9aa79abe5b/gallery/image/TMQTf111RmQb9QV2I5ufcPHeMUXg2BAkqR3KRRog_0Q=/medium.webp"},{"id":"7a5bf777-438d-436b-8367-c4b1e9db3bbd","slug":"al-mamsha-hamsa-phase-2-by-alef-group","name":"Al Mamsha Hamsa Phase 2 By Alef Group","developer":"Alef Group","area":"Muwaileh, Al Mamsha, Hamsa","city":"Sharjah","lat":25.307932,"lng":55.467621,"minPriceAed":794000,"handover":"Q2 2029","imageUrl":"https://new-projects-media.propertyfinder.com/project/7a5bf777-438d-436b-8367-c4b1e9db3bbd/gallery/image/a6LqQq2ZwBuSt2KfluZ6yMEpqp9A4-KBDs4ARjt0toc=/medium.webp"},{"id":"01fbb93f-1284-4a62-951e-3b7516934627","slug":"al-walid-tower","name":"Al Walid Tower","developer":"Tiger  Properties","area":"Al Khan, Al Walid Tower","city":"Sharjah","lat":25.31238666707,"lng":55.37871867799,"minPriceAed":630000,"handover":"Q1 2028","imageUrl":"https://new-projects-media.propertyfinder.com/project/01fbb93f-1284-4a62-951e-3b7516934627/gallery/image/IH57MmT9j12wsPW1p582IemfXtNS1gFmLPu6myPlETM=/medium.webp"},{"id":"bc7d882f-78d6-4839-b2ea-75e50827496a","slug":"alta","name":"Alta","developer":"Meteora Developers","area":"Jumeirah Village Circle, District 11, Alta","city":"Dubai","lat":25.06019657451,"lng":55.20974310132,"minPriceAed":692000,"handover":"Q3 2026","imageUrl":"https://new-projects-media.propertyfinder.com/project/bc7d882f-78d6-4839-b2ea-75e50827496a/gallery/image/SlvB6qwPiRB-s_0kSocknZ1nPmkm06JCh1EnSi9kLY0=/medium.webp"},{"id":"c8f5c6df-02b7-40e1-9b20-df2641ad21b0","slug":"altiera-heights","name":"Altiera Heights","developer":"Ellington","area":"Jumeirah Islands","city":"Dubai","lat":25.05520086333,"lng":55.15875590445,"minPriceAed":2000000,"handover":"Q4 2028","imageUrl":"https://new-projects-media.propertyfinder.com/project/c8f5c6df-02b7-40e1-9b20-df2641ad21b0/gallery/image/FXMMteNc9dsnD5clOOdApy1X_2a0KApsIcbqwSRfxX0=/medium.webp"},{"id":"3a8baf3b-c062-4d5f-bd06-a588e1c76500","slug":"damac-altitude-tower","name":"Altitude","developer":"Damac Properties","area":"Business Bay, Damac Altitude Tower","city":"Dubai","lat":25.18195528847,"lng":55.2806153764,"minPriceAed":3334000,"handover":"Q1 2028","imageUrl":"https://new-projects-media.propertyfinder.com/project/3a8baf3b-c062-4d5f-bd06-a588e1c76500/gallery/image/uXm8WrvtPj2p3FTsgySia82ONZBU13Uir7uiDUAFgnM=/medium.webp"},{"id":"b226bf9f-5ab3-4788-ac13-7f50d037d8b7","slug":"altura-2","name":"Altura Phase 2","developer":"BT Holdings","area":"Dubai South (Dubai World Central), Waada by Bahria Town, Altura 2","city":"Dubai","lat":24.831066,"lng":55.132636,"minPriceAed":899000,"handover":"Q1 2029","imageUrl":"https://new-projects-media.propertyfinder.com/project/b226bf9f-5ab3-4788-ac13-7f50d037d8b7/gallery/image/TbZg7TCR8zy9QsSaX4243qcz5m5-sTUMejn63sIpNaw=/medium.webp"},{"id":"309e9eb1-147a-412e-b6e6-d42d3132d696","slug":"anantara-mina","name":"Anantara Mina","developer":"RAK Properties","area":"Mina Al Arab, Anantara Mina","city":"Ras Al Khaimah","lat":25.7214316623,"lng":55.8509621711,"minPriceAed":2200000,"handover":"Q2 2028","imageUrl":"https://new-projects-media.propertyfinder.com/project/309e9eb1-147a-412e-b6e6-d42d3132d696/gallery/image/lpBVXgN87w-A3iBdRf-9a_GQRZSMDNrLA_MKhnmf16Q=/medium.webp"},{"id":"eef8fa81-55f2-4be1-b6e1-16369d4774ea","slug":"aquacrest","name":"AquaCrest","developer":"Sobha Realty","area":"Umm Al Quwain Marina","city":"Umm Al Quwain","lat":25.52648733,"lng":55.59750438,"minPriceAed":1170000,"handover":"Q2 2029","imageUrl":"https://new-projects-media.propertyfinder.com/project/eef8fa81-55f2-4be1-b6e1-16369d4774ea/gallery/image/vCMvH8RZIJB-5bx6FR6fi9erUmXNV8ngb1dW1HtPmT0=/medium.webp"},{"id":"8e5667f9-f48f-4d7c-a6df-f90d143be08a","slug":"aquamarine-beach-residences","name":"Aquamarine Beach Residences","developer":"Sobha Realty","area":"Umm Al Quwain Marina, Siniyah Island, Aquamarine Beach Residences","city":"Umm Al Quwain","lat":25.60786055582,"lng":55.61987278183,"minPriceAed":2051806,"handover":"Q2 2028","imageUrl":"https://new-projects-media.propertyfinder.com/project/8e5667f9-f48f-4d7c-a6df-f90d143be08a/gallery/image/0A7a0uDGKSSKOIBSd6c_OIOVqGs5k1bNEpHnLbqxMec=/medium.webp"},{"id":"7355575a-0d61-4afb-b795-7acb989c9255","slug":"arancia-yards","name":"Arancia Yards","developer":"Beyond","area":"City of Arabia, Arancia Yards By Beyond","city":"Dubai","lat":25.0872153,"lng":55.3251906,"minPriceAed":1100000,"handover":"Q4 2028","imageUrl":"https://new-projects-media.propertyfinder.com/project/7355575a-0d61-4afb-b795-7acb989c9255/gallery/image/oAblXsuX-PF5s1o5xrIBLvokRAst432p-qRh02s2Hxw=/medium.webp"},{"id":"4513cea8-6aae-4920-94d6-63936be25ea1","slug":"arthouse-hills","name":"Art House Hills By Adaan And Tuscany","developer":"Adaan and Tuscany","area":"Arjan, Art House Hills by Adaan and Tuscany","city":"Dubai","lat":25.064807,"lng":55.246007,"minPriceAed":886888,"handover":"Q4 2028","imageUrl":"https://new-projects-media.propertyfinder.com/project/4513cea8-6aae-4920-94d6-63936be25ea1/gallery/image/MnTUpnXl2gy5SJ3XvKviJlYnSOyhPkbAVcc4TzkgFWw=/medium.webp"},{"id":"3e945687-4938-4ace-afdc-492a1e7797ab","slug":"arthouse-residences","name":"Arthouse Residences","developer":"Cledor","area":"Al Marjan Island, Arthouse Residences","city":"Ras Al Khaimah","lat":25.687176,"lng":55.736251,"minPriceAed":1590750,"handover":"Q4 2027","imageUrl":"https://new-projects-media.propertyfinder.com/project/3e945687-4938-4ace-afdc-492a1e7797ab/gallery/image/izLE-_7rqlr7u4TuXbklnpJc2kXZGErqU1TNrD55gQ8=/medium.webp"},{"id":"74b9fbee-85b9-433d-9953-2986159cf793","slug":"arthouse-residences","name":"Arthouse Residences","developer":"Aviaan Real Estate Development","area":"Al Marjan Island, Arthouse Residences","city":"Ras Al Khaimah","lat":25.687176,"lng":55.736251,"minPriceAed":1080000,"handover":"Q4 2027","imageUrl":"https://new-projects-media.propertyfinder.com/project/74b9fbee-85b9-433d-9953-2986159cf793/gallery/image/EWNLt1WGR1iUtxVOCn03mWlyYC8fYiDaF7QyrPYJ88Q=/medium.webp"},{"id":"48568636-a21e-4c63-8f28-91176398793e","slug":"aspin-grove","name":"Aspin Grove","developer":"AYS Property Development","area":"Jumeirah Village Circle","city":"Dubai","lat":25.05638764826,"lng":55.20812137772,"minPriceAed":514780,"handover":"Q3 2028","imageUrl":"https://new-projects-media.propertyfinder.com/project/48568636-a21e-4c63-8f28-91176398793e/gallery/image/NU6wrFZoSxgvrSSNnfJ2id1vHcmh4uPaEY7fhf8Faq8=/medium.webp"},{"id":"4e280234-3e42-41ec-a9bc-417518d4476e","slug":"astra-south","name":"Astra Residences","developer":"Dugasta","area":"Dubai South (Dubai World Central), The Pulse, Astra South","city":"Dubai","lat":24.9448093978,"lng":55.2246788132,"minPriceAed":1935842,"handover":"Q3 2027","imageUrl":"https://new-projects-media.propertyfinder.com/project/4e280234-3e42-41ec-a9bc-417518d4476e/gallery/image/FJDTBB423RQ6vZAx49PiaOJXKRaKTp3n0apXqRoI_rY=/medium.webp"},{"id":"f8726940-b6b9-4988-8a67-2accac1db98d","slug":"aurea","name":"Aurea","developer":"Emaar Properties","area":"Mina Rashid, Aurea","city":"Dubai","lat":25.275315,"lng":55.289468,"minPriceAed":2310888,"handover":"Q2 2030","imageUrl":"https://new-projects-media.propertyfinder.com/project/f8726940-b6b9-4988-8a67-2accac1db98d/gallery/image/wX9y8Em2PdGK8tp9-uMAv_mLyEFqCTzNfQq-2w2Qwc8=/medium.webp"},{"id":"b14efa3b-9c9f-4d9d-97de-7d6516978fe8","slug":"avant-garde-residences-phase-2-by-skyline-builders","name":"Avant Garde Residences Phase 2 by Skyline Builders","developer":"Skyline Builders","area":"Jumeirah Village Circle, District 12, Avant Garde Residences II","city":"Dubai","lat":25.0567820062,"lng":55.2105222576,"minPriceAed":732270,"handover":"Q2 2028","imageUrl":"https://new-projects-media.propertyfinder.com/project/b14efa3b-9c9f-4d9d-97de-7d6516978fe8/gallery/image/AKzwpn3Xzht8lqDa6ytHnhzl_dN181jiik9icBuvU18=/medium.webp"},{"id":"8438aed2-ffd4-494a-95da-d0a91f89d106","slug":"avant-garde-residences-ii","name":"Avant Garde-II Residences","developer":"Skyline Builders","area":"Jumeirah Village Circle, District 12, Avant Garde Residences II","city":"Dubai","lat":25.0567820062,"lng":55.2105222576,"minPriceAed":680000,"handover":"Q3 2029","imageUrl":"https://new-projects-media.propertyfinder.com/project/8438aed2-ffd4-494a-95da-d0a91f89d106/gallery/image/nx4mQ4M53Me4Wk95b8_PMh2JWm34fVhvh41OFJp2nrY=/medium.webp"},{"id":"4b93ef5b-25a3-448c-b6a7-63e36301166e","slug":"avarra-by-palace","name":"Avarra by Palace","developer":"Emaar Properties","area":"Business Bay, Avarra by Palace","city":"Dubai","lat":25.1897422987,"lng":55.2612988476,"minPriceAed":3157888,"handover":"Q2 2031","imageUrl":"https://new-projects-media.propertyfinder.com/project/4b93ef5b-25a3-448c-b6a7-63e36301166e/gallery/image/QoTEnWyO4lYdadxkl4wdY4jAuBtKSNbkweOM_2sQCWw=/medium.webp"},{"id":"cbbc0362-6be0-469a-91f0-7ff7f93a40cb","slug":"avenew-888","name":"Avenew 888","developer":"Avenew Properties","area":"Dubai South (Dubai World Central), Residential District, Avenew 888","city":"Dubai","lat":24.944027,"lng":55.216394,"minPriceAed":1601000,"handover":"Q1 2028","imageUrl":"https://new-projects-media.propertyfinder.com/project/cbbc0362-6be0-469a-91f0-7ff7f93a40cb/gallery/image/X06g7D3BuUTci6NAzlhO6xZChiuj9tevoQl6raURaPc=/medium.webp"},{"id":"6929eb1a-ce6a-4a53-bcd2-abfab224b125","slug":"avida-residences","name":"Avida Residences","developer":"Serene Marina Real Estate Developments","area":"Dubai Islands, Avida Residences","city":"Dubai","lat":25.2992494228,"lng":55.3142723749,"minPriceAed":1790000,"handover":"Q4 2027","imageUrl":"https://new-projects-media.propertyfinder.com/project/6929eb1a-ce6a-4a53-bcd2-abfab224b125/gallery/image/E0L4kEOnLjZJTIwFJuwwHPv8gSJMTzRmXu7-qg2glSQ=/medium.webp"},{"id":"4b884824-97e4-473d-bc6f-81ff6cac6523","slug":"avior-by-acube","name":"Avior By Acube","developer":"Acube Developers","area":"Sheikh Zayed Road, Avior By Acube","city":"Dubai","lat":25.1955486783,"lng":55.26139847302,"minPriceAed":3132846,"handover":"Q4 2026","imageUrl":"https://new-projects-media.propertyfinder.com/project/4b884824-97e4-473d-bc6f-81ff6cac6523/gallery/image/29DCsQhfyxCnc2wxH3nrBGnsDqT6sh2jzulDGebhjnM=/medium.webp"},{"id":"73070b03-2554-46d4-baa0-13662033790d","slug":"aya-beachfront-residences","name":"Aya Beachfront Residences","developer":"Deyaar Development","area":"Al Raudah, Aya Beachfront Residences","city":"Umm Al Quwain","lat":25.58011161142,"lng":55.56432967143,"minPriceAed":1095000,"handover":"Q4 2027","imageUrl":"https://new-projects-media.propertyfinder.com/project/73070b03-2554-46d4-baa0-13662033790d/gallery/image/i82CRenguwnlvYhRTbvyi4buk6xaik4qVE_FtD8NmcE=/medium.webp"},{"id":"73da01e7-0e75-41e5-a768-c9fd1f29b8a3","slug":"azha-millennium-residences","name":"Azha Millennium Residences","developer":"Emirates properties","area":"Jumeirah Village Triangle, District 4, Azha Millennium Residences","city":"Dubai","lat":25.04236,"lng":55.189938,"minPriceAed":650000,"handover":"Q4 2027","imageUrl":"https://new-projects-media.propertyfinder.com/project/73da01e7-0e75-41e5-a768-c9fd1f29b8a3/gallery/image/vlO88ROuHrfIR3hLUiBnmlE7pY9_OWhvYK13YHuqBuM=/medium.webp"},{"id":"de56fafe-9f84-4d22-b0aa-3aead5cfaf5e","slug":"azizi-lina","name":"Azizi Lina","developer":"Azizi Developments","area":"Downtown Jebel Ali, Azizi Lina","city":"Dubai","lat":24.970879,"lng":55.089278,"minPriceAed":601000,"handover":"Q3 2028","imageUrl":"https://new-projects-media.propertyfinder.com/project/de56fafe-9f84-4d22-b0aa-3aead5cfaf5e/gallery/image/lgzem7N4B1KNSjZ5pp8AsK5-usZb3nZgI6zITj10SKM=/medium.webp"},{"id":"408c089f-82bc-499e-8a14-2d087b26dd42","slug":"azizi-milan","name":"Azizi Milan","developer":"Azizi Developments","area":"City of Arabia, Azizi Milan","city":"Dubai","lat":25.088381,"lng":55.325545,"minPriceAed":560000,"handover":"Q2 2028","imageUrl":"https://new-projects-media.propertyfinder.com/project/408c089f-82bc-499e-8a14-2d087b26dd42/gallery/image/MjPiXbOYYLU-vL605I_Fy61Ebdxqe0KHNe6PqW7y3go=/medium.webp"},{"id":"1f0b2219-ad92-4699-b305-ef84f8c97e0e","slug":"azizi-sakandar","name":"Azizi Sikander","developer":"Azizi Developments","area":"Al Furjan, Azizi Sakandar","city":"Dubai","lat":25.0346158932,"lng":55.1447689211,"minPriceAed":550000,"handover":"Q2 2027","imageUrl":"https://new-projects-media.propertyfinder.com/project/1f0b2219-ad92-4699-b305-ef84f8c97e0e/gallery/image/OXZ_iK719WIjAmjUJHryCKQ42Ol_MjC9w5i8_PAmkWM=/medium.webp"},{"id":"e6b819fc-e795-4d47-8f9c-f369a15e8321","slug":"azizi-venice-15","name":"Azizi Venice 15","developer":"Azizi Developments","area":"Dubai South (Dubai World Central), Azizi Venice, Azizi Venice 15","city":"Dubai","lat":24.8381752936,"lng":55.135372254,"minPriceAed":619000,"handover":"Q2 2027","imageUrl":"https://new-projects-media.propertyfinder.com/project/e6b819fc-e795-4d47-8f9c-f369a15e8321/gallery/image/8_DbC1f_B0GzJZF14e0StL2mcSHngTb6gtH8REDQVic=/medium.webp"},{"id":"a61f8e65-e61f-437b-9e92-daebffb851cb","slug":"azra-residence","name":"Azra Residence","developer":"Enaam Properties","area":"Dubai Land Residence Complex, Azra Residence","city":"Dubai","lat":25.0902317,"lng":55.3834874,"minPriceAed":970000,"handover":"Q2 2027","imageUrl":"https://new-projects-media.propertyfinder.com/project/a61f8e65-e61f-437b-9e92-daebffb851cb/gallery/image/NXlFW9a8bBWiaE15C9xMij9PycMEn3_5oy-oRbetTwg=/medium.webp"},{"id":"fc482f4c-43a7-4fea-ab2a-15d8240c6945","slug":"azure-by-lapis","name":"Azure by Lapis","developer":"Lapis Properties","area":"RAK Central, Azure By Lapis","city":"Ras Al Khaimah","lat":25.6899430487,"lng":55.7993100064,"minPriceAed":790000,"handover":"Q4 2028","imageUrl":"https://new-projects-media.propertyfinder.com/project/fc482f4c-43a7-4fea-ab2a-15d8240c6945/gallery/image/gyK98d2JxIYhGd-GlMguTpNzSkubSuTnrmX-cyWyhjs=/medium.webp"},{"id":"ccfff306-b643-4a54-ba3e-c848e4a789c3","slug":"bab-al-qasr-garden-residences-65","name":"Bab Al Qasr Garden Residences 65","developer":"Burtville","area":"Masdar City, Bab Al Qasr Garden Residence 66","city":"Abu Dhabi","lat":24.430949,"lng":54.615037,"minPriceAed":2000000,"handover":"Q1 2030","imageUrl":"https://new-projects-media.propertyfinder.com/project/ccfff306-b643-4a54-ba3e-c848e4a789c3/gallery/image/ukOWkztfNjLN9F2t1LNDGXS2ieYaNeMfJzxu6ly1_KM=/medium.webp"},{"id":"d4770b56-6bd0-488e-aa82-ea6c21676b78","slug":"bab-al-qasr-sea-view-51","name":"Bab Al Qasr Sea View 51","developer":"Burtville","area":"Al Raha Beach, Al Seef, Bab Al Qasr Sea View Residence 51","city":"Abu Dhabi","lat":24.4461786823,"lng":54.5869244819,"minPriceAed":4500000,"handover":"Q4 2029","imageUrl":"https://new-projects-media.propertyfinder.com/project/d4770b56-6bd0-488e-aa82-ea6c21676b78/gallery/image/lJWjI_tDVpLus24N6yHkEWy-5Ig447n1oZ1HECRlTW4=/medium.webp"},{"id":"5af6bc9f-8e9a-4522-a0bc-d141c6ca9902","slug":"bahamas","name":"Bahamas","developer":"Damac Properties","area":"Dubai Land, Damac Islands 2, Bahamas 1","city":"Dubai","lat":25.0263378295,"lng":55.3086703111,"minPriceAed":3913000,"handover":"Q2 2030","imageUrl":"https://new-projects-media.propertyfinder.com/project/5af6bc9f-8e9a-4522-a0bc-d141c6ca9902/gallery/image/_FkdKPvAivG6qvWIkKbWB0RyahDSwj_r4gwWla60fUA=/medium.webp"},{"id":"341d88af-1a9c-4f78-904f-0be8adf9adaa","slug":"bahamas-phase-2","name":"Bahamas Phase 2","developer":"Damac Properties","area":"Dubai Land, Damac Islands 2, Bahamas 2","city":"Dubai","lat":25.0238645925,"lng":55.3192365343,"minPriceAed":2750000,"handover":"Q2 2030","imageUrl":"https://new-projects-media.propertyfinder.com/project/341d88af-1a9c-4f78-904f-0be8adf9adaa/gallery/image/hqU_vbFV4p6-Q9BjsV5YibYp-kWCFX3CQ_vCXd4-toc=/medium.webp"},{"id":"1c0bb8ef-f125-4432-9303-660ed284c05a","slug":"bahria-town-dubai","name":"Bahria Town Dubai","developer":"BT Holdings","area":"Dubai South (Dubai World Central)","city":"Dubai","lat":24.88975851,"lng":55.1453805,"minPriceAed":550000,"handover":"Q4 2027","imageUrl":"https://new-projects-media.propertyfinder.com/project/1c0bb8ef-f125-4432-9303-660ed284c05a/gallery/image/RvwLf6QNjg8Ogpu5o_XFq8b1DtFfYk-x_ZYMeH3rbvM=/medium.webp"},{"id":"16738dca-f490-4e04-936e-2b3dc59d64ad","slug":"baia-by-reportage","name":"Baia by Reportage","developer":"Reportage Real Estate","area":"Al Raha Beach","city":"Abu Dhabi","lat":24.5223193,"lng":54.6259474,"minPriceAed":3850000,"handover":"Q2 2029","imageUrl":"https://new-projects-media.propertyfinder.com/project/16738dca-f490-4e04-936e-2b3dc59d64ad/gallery/image/wcANh9ig6J5HKTjaPt7EP_5l2EEz4N4MAlgV4jWI_e8=/medium.webp"},{"id":"c442fda7-c05d-4a9b-8f62-b5d72e30357a","slug":"barbados","name":"Barbados","developer":"Damac Properties","area":"Dubai Land, Damac Islands 2, Barbados","city":"Dubai","lat":25.029144,"lng":55.319666,"minPriceAed":4120000,"handover":"Q2 2030","imageUrl":"https://new-projects-media.propertyfinder.com/project/c442fda7-c05d-4a9b-8f62-b5d72e30357a/gallery/image/prbo_R5eg8oOJl-H3DOBskl8rSf0f-Bo8a4641B4Pr8=/medium.webp"},{"id":"c0118dcf-304e-418b-8b08-191587724386","slug":"bashayer-residences","name":"Bashayer Residences","developer":"Modon Properties","area":"Al Hudayriat Island, Bashayer Residences 1","city":"Abu Dhabi","lat":24.4083405595,"lng":54.4032788654,"minPriceAed":2350000,"handover":"Q1 2030","imageUrl":"https://new-projects-media.propertyfinder.com/project/c0118dcf-304e-418b-8b08-191587724386/gallery/image/kibiQovicVYuXGBlL2Gmtpta7mDYbIhcTEajl8zJklk=/medium.webp"},{"id":"aca4cfc4-aebc-454d-8441-e00e44fbce83","slug":"bashayer-villas","name":"Bashayer Villas","developer":"Modon Properties","area":"Al Hudayriat Island, Bashayer Villas","city":"Abu Dhabi","lat":24.4151126082,"lng":54.3823674423,"minPriceAed":6000000,"handover":"Q3 2028","imageUrl":"https://new-projects-media.propertyfinder.com/project/aca4cfc4-aebc-454d-8441-e00e44fbce83/gallery/image/jHX01MrW5UCRdgPPDbmFRS1dSaMMdfYqF0BU3IbXIds=/medium.webp"},{"id":"4a2a81b1-c09e-4c3e-9fe6-685a8f36e146","slug":"bay-grove-residences-phase-4-by-nakheel","name":"Bay Grove Residences Phase 4 By Nakheel","developer":"Nakheel","area":"Dubai Islands, Bay Grove Residences","city":"Dubai","lat":25.30529220268,"lng":55.31979691539,"minPriceAed":2000000,"handover":"Q3 2028","imageUrl":"https://new-projects-media.propertyfinder.com/project/4a2a81b1-c09e-4c3e-9fe6-685a8f36e146/gallery/image/8eMzVmAlTmhbv3cbjnLe_hryvS7iT9kfSCUjNouOFFQ=/medium.webp"},{"id":"bad1cf66-2f96-4d3a-9f10-b1380cd5936d","slug":"bayfront-marina-residences","name":"Bayfront Marina Residences","developer":"Sobha Realty","area":"Umm Al Quwain Marina, Siniyah Island, Bayfront Marina Residences","city":"Umm Al Quwain","lat":25.604171,"lng":55.627719,"minPriceAed":1334658,"handover":"Q3 2029","imageUrl":"https://new-projects-media.propertyfinder.com/project/bad1cf66-2f96-4d3a-9f10-b1380cd5936d/gallery/image/C6QqsxIXGzaqYHWCTVG7u9PLx0YpRmmZ0XwZmPvid8Y=/medium.webp"},{"id":"fb18f493-fbec-4844-8491-aa0809af82a8","slug":"bayn-lagoon","name":"Bayn Lagoon","developer":"ORA","area":"Ghantoot","city":"Abu Dhabi","lat":24.8558994,"lng":54.851121,"minPriceAed":2750000,"handover":"Q4 2028","imageUrl":"https://new-projects-media.propertyfinder.com/project/fb18f493-fbec-4844-8491-aa0809af82a8/gallery/image/LPR0ih2M4Xj-skNKiEbKliyf5lgaU5JFuE4Rwj3sUa4=/medium.webp"},{"id":"90e25abd-f2b0-40af-90ef-a6040c31d675","slug":"bayn-waterway","name":"Bayn Waterway","developer":"ORA","area":"Ghantoot","city":"Abu Dhabi","lat":24.8558994,"lng":54.851121,"minPriceAed":10000000,"handover":"Q1 2029","imageUrl":"https://new-projects-media.propertyfinder.com/project/90e25abd-f2b0-40af-90ef-a6040c31d675/gallery/image/LPR0ih2M4Xj-skNKiEbKliyf5lgaU5JFuE4Rwj3sUa4=/medium.webp"},{"id":"f9879778-dbdd-46d5-8072-996030d0aa8e","slug":"bayside-marina-residences","name":"Bayside Marina Residences","developer":"Sobha Realty","area":"Umm Al Quwain Marina, Siniyah Island, Bayside Marina Residences","city":"Umm Al Quwain","lat":25.603197,"lng":55.627604,"minPriceAed":1490191,"handover":"Q1 2029","imageUrl":"https://new-projects-media.propertyfinder.com/project/f9879778-dbdd-46d5-8072-996030d0aa8e/gallery/image/_a-Y9j5ImekeHUDK-tyP4aKJ_biYssaYGrNm_LLmPSw=/medium.webp"},{"id":"f411f5e1-63ed-434c-9d04-ab7a05e786d6","slug":"bayz-101","name":"Bayz 101","developer":"Danube Properties","area":"Business Bay, Bayz 101 by Danube","city":"Dubai","lat":25.191834,"lng":55.2607651,"minPriceAed":1175000,"handover":"Q2 2028","imageUrl":"https://new-projects-media.propertyfinder.com/project/f411f5e1-63ed-434c-9d04-ab7a05e786d6/gallery/image/K5iJg_LsoQVQt2xWdQzjjnvI9BNsxOzUUTilyB4DtEY=/medium.webp"},{"id":"e211b996-20e8-4a1a-9109-507e9cf5fefa","slug":"bayz-102","name":"Bayz 102","developer":"Danube Properties","area":"Business Bay, Bayz 102 by Danube","city":"Dubai","lat":25.18764136113,"lng":55.25993749598,"minPriceAed":1270000,"handover":"Q4 2029","imageUrl":"https://new-projects-media.propertyfinder.com/project/e211b996-20e8-4a1a-9109-507e9cf5fefa/gallery/image/fmqCGW0XXPjPPYmLuDHKONlZ-5wvAbebKLmj70O8UE4=/medium.webp"},{"id":"9011cad7-db00-468a-8aac-861f216bd54c","slug":"beach-house","name":"Beach House","developer":"RAK Properties","area":"Al Marjan Island, The Beach House at Al Marjan","city":"Ras Al Khaimah","lat":25.6632304,"lng":55.747594,"minPriceAed":5445000,"handover":"Q4 2025","imageUrl":"https://new-projects-media.propertyfinder.com/project/9011cad7-db00-468a-8aac-861f216bd54c/gallery/image/bbF-R0yexkkMbNoFt3m58-HT_hGLpVSV7oUmrRJg62M=/medium.webp"},{"id":"4fb467d2-248e-47f5-90b1-4a2cf50b4b45","slug":"beach-walk-phase-4-by-imtiaz","name":"Beach Walk Phase 4 by Imtiaz","developer":"Imtiaz Developments","area":"Dubai Islands, Beach Walk IV by Imtiaz","city":"Dubai","lat":25.2886375868,"lng":55.2953476491,"minPriceAed":1942000,"handover":"Q2 2027","imageUrl":"https://new-projects-media.propertyfinder.com/project/4fb467d2-248e-47f5-90b1-4a2cf50b4b45/gallery/image/w4kpqZrupo3k4AWwjk9mt4eRSommRZ3-24kKOri2-BE=/medium.webp"},{"id":"43a90d0b-af71-49b5-a05c-48320e3c66eb","slug":"beach-walk-residences-4-by-imtiaz","name":"Beach Walk Residences 4 By Imtiaz","developer":"Imtiaz Developments","area":"Dubai Islands, Beach Walk Residences, Beach Walk Residences 4","city":"Dubai","lat":25.288634563,"lng":55.2953385375,"minPriceAed":1942000,"handover":"Q2 2027","imageUrl":"https://new-projects-media.propertyfinder.com/project/43a90d0b-af71-49b5-a05c-48320e3c66eb/gallery/image/REkJPnlpL5baTNEcD3Ga1-kaeQEEL6qM_ZSqaEDMuiQ=/medium.webp"},{"id":"437db039-cd76-4425-a171-22d2d0f23716","slug":"berkeley-square","name":"Berkeley Square","developer":"Prestige One Developments","area":"Jumeirah Village Circle, District 13, Berkeley Square","city":"Dubai","lat":25.048275,"lng":55.209751,"minPriceAed":690000,"handover":"Q1 2028","imageUrl":"https://new-projects-media.propertyfinder.com/project/437db039-cd76-4425-a171-22d2d0f23716/gallery/image/06LuITZeE39P6_uO6xcgIxhBqJ2-j5A54fD9ybjYQdw=/medium.webp"},{"id":"25bad152-9682-49e4-a119-13974b4c7b4b","slug":"bermuda","name":"Bermuda","developer":"Damac Properties","area":"Dubai Land, Damac Islands 2, Bermuda","city":"Dubai","lat":25.024701,"lng":55.316162,"minPriceAed":3844000,"handover":"Q2 2030","imageUrl":"https://new-projects-media.propertyfinder.com/project/25bad152-9682-49e4-a119-13974b4c7b4b/gallery/image/sd95FiuLtmWaqYZbW1YzH7EZIiKTayte4Z9n3ALsAWU=/medium.webp"},{"id":"dd53775a-e22f-4eb2-8d8c-86fb1df2f76f","slug":"beverly-park","name":"Beverly Park","developer":"HMB Properties","area":"Dubai Land Residence Complex, Beverly Park","city":"Dubai","lat":25.086765,"lng":55.383228,"minPriceAed":575000,"handover":"Q4 2027","imageUrl":"https://new-projects-media.propertyfinder.com/project/dd53775a-e22f-4eb2-8d8c-86fb1df2f76f/gallery/image/_0V2Ce8Vc9-CCogWZA9sBr20VjmYTWPpl3WTlBYGqNM=/medium.webp"},{"id":"cdbc46f0-667b-458b-b067-84b6a326574b","slug":"binghatti-aquarise","name":"Binghatti Aquarise","developer":"Binghatti Developers","area":"Business Bay, Binghatti Aquarise","city":"Dubai","lat":25.176679,"lng":55.273303,"minPriceAed":2000000,"handover":"Q1 2027","imageUrl":"https://new-projects-media.propertyfinder.com/project/cdbc46f0-667b-458b-b067-84b6a326574b/gallery/image/4FhpI9fnENyFysPi0sh1S-bwST3fn2fmH160_eArrIo=/medium.webp"},{"id":"8f366efb-b5b6-47ed-9d81-828f3bda4923","slug":"binghatti-hillcrest","name":"Binghatti HillCrest","developer":"Binghatti Developers","area":"Arjan, Binghatti Hillcrest","city":"Dubai","lat":25.066551,"lng":55.233945,"minPriceAed":808999,"handover":"Q4 2026","imageUrl":"https://new-projects-media.propertyfinder.com/project/8f366efb-b5b6-47ed-9d81-828f3bda4923/gallery/image/8liOD69oVcBQ9uT_hk7EaRkd6JT-T-P2adCVrv0JBck=/medium.webp"},{"id":"f8863b16-6bc9-4977-831a-1b49ec419b85","slug":"sky-terraces","name":"Binghatti Sky Terraces","developer":"Binghatti Developers","area":"Motor City, Dubai Autodrome and Business Park, Binghatti Skyterraces","city":"Dubai","lat":25.047304,"lng":55.228926,"minPriceAed":700000,"handover":"Q4 2027","imageUrl":"https://new-projects-media.propertyfinder.com/project/f8863b16-6bc9-4977-831a-1b49ec419b85/gallery/image/YT2LQBioCp7KQEhoVsesJtnPufYOYqOCayEEaEs3vrY=/medium.webp"},{"id":"5098b511-ce62-4d91-b8f1-33961716d414","slug":"bloom-arjaan","name":"Bloom Arjaan","developer":"Bloom Properties","area":"Saadiyat Island, Bloom Arjaan","city":"Abu Dhabi","lat":24.523437,"lng":54.434161,"minPriceAed":951000,"handover":"Q4 2024","imageUrl":"https://new-projects-media.propertyfinder.com/project/5098b511-ce62-4d91-b8f1-33961716d414/gallery/image/s5ZH3PbSOp8t6DpG_KBsVb73t-3bDkk_owgUPQ28Hvs=/medium.webp"},{"id":"47e3ff3c-7b77-4a37-b155-70dd27dfdeda","slug":"bloom-living-granada-2","name":"Bloom Living Granada 2","developer":"Bloom Properties","area":"Khalifa City, Zayed City (Khalifa City C), Bloom Living","city":"Abu Dhabi","lat":24.400336,"lng":54.642255,"minPriceAed":690000,"handover":"Q1 2028","imageUrl":"https://new-projects-media.propertyfinder.com/project/47e3ff3c-7b77-4a37-b155-70dd27dfdeda/gallery/image/eNv9xO2SfkBfaDvbCBTwT8_5LXR1On7R_OcruHmzKJs=/medium.webp"},{"id":"bd42ccfa-63cb-4a29-8a65-4239654312f1","slug":"bloom-living-marbella","name":"Bloom Living Marbella","developer":"Bloom Properties","area":"Khalifa City, Zayed City (Khalifa City C), Bloom Living","city":"Abu Dhabi","lat":24.400336,"lng":54.642255,"minPriceAed":3876000,"handover":"Q4 2028","imageUrl":"https://new-projects-media.propertyfinder.com/project/bd42ccfa-63cb-4a29-8a65-4239654312f1/gallery/image/bsoKkjPav_v2L_suemJTR1e4RBa_dKyz4Bz8VGJhD-I=/medium.webp"},{"id":"1e0a7f6d-9f10-4926-8922-eb7aa4ab41a6","slug":"blue-beach-residence","name":"Blue Beach Residence","developer":"Ajmal Makan","area":"Sharjah Waterfront City, Ajmal Makan City, Blue Beach Residence","city":"Sharjah","lat":25.499691,"lng":55.534435,"minPriceAed":1237000,"handover":"Q1 2028","imageUrl":"https://new-projects-media.propertyfinder.com/project/1e0a7f6d-9f10-4926-8922-eb7aa4ab41a6/gallery/image/Qr25zoJ_DTvHZAkD_4TB8SvYMIkHryuGUu2w2cZOrb4=/medium.webp"},{"id":"046c8e0b-af31-4df4-b080-953929fcb1aa","slug":"blue-marina-residence","name":"Blue Marina Residence","developer":"Shakirov Developments","area":"Dubai Islands, Blue Marina Residence","city":"Dubai","lat":25.2909841414,"lng":55.2935145063,"minPriceAed":1750000,"handover":"Q3 2028","imageUrl":"https://new-projects-media.propertyfinder.com/project/046c8e0b-af31-4df4-b080-953929fcb1aa/gallery/image/-_dvP960Qn6QRjhNg7VJsgH3ADqN2YOgP6paejUEXjM=/medium.webp"},{"id":"fc881be4-cafd-4b92-9578-6d7cb6774c65","slug":"blue-waves","name":"Blue Waves At Bluebay Walk","developer":"Ajmal Makan","area":"Sharjah Waterfront City, Ajmal Makan City, Bluebay Walk","city":"Sharjah","lat":25.49617803979,"lng":55.53759155994,"minPriceAed":509000,"handover":"Q4 2025","imageUrl":"https://new-projects-media.propertyfinder.com/project/fc881be4-cafd-4b92-9578-6d7cb6774c65/gallery/image/5AXdK9ThIKLu_hWn0z06neV31HU6umjXVCSG8PT5QMQ=/medium.webp"},{"id":"f4df7186-dbe7-4a8c-b501-b83756f6727a","slug":"bond-enclave","name":"Bond Enclave","developer":"Pearlshire","area":"Arjan, Bond Enclave","city":"Dubai","lat":25.06399644984,"lng":55.24189710617,"minPriceAed":1213777,"handover":"Q2 2027","imageUrl":"https://new-projects-media.propertyfinder.com/project/f4df7186-dbe7-4a8c-b501-b83756f6727a/gallery/image/XWB5fYxcTNqSgb1pl4fDLouMwbc55SGqQaTfEH5PyLA=/medium.webp"},{"id":"e07cae8d-7b94-407b-984a-ae78a567bd1e","slug":"bora-bora-phase-4-by-damac","name":"Bora Bora Phase 4 By Damac","developer":"Damac Properties","area":"DAMAC Islands, Bora Bora, Bora Bora 4","city":"Dubai","lat":25.0306291,"lng":55.3088826,"minPriceAed":2470000,"handover":"Q4 2028","imageUrl":"https://new-projects-media.propertyfinder.com/project/e07cae8d-7b94-407b-984a-ae78a567bd1e/gallery/image/N6Wfs4LVa4-xErGver2qRWiNwB6fkqRa6Z-NDAhdrLk=/medium.webp"},{"id":"67842821-57fa-4dd1-9824-a4d441987fba","slug":"boulevard-park","name":"Boulevard Park","developer":"Wasl Properties","area":"Wasl Gate, Boulevard Park","city":"Dubai","lat":25.0239732704,"lng":55.1056998209,"minPriceAed":900000,"handover":"Q2 2029","imageUrl":"https://new-projects-media.propertyfinder.com/project/67842821-57fa-4dd1-9824-a4d441987fba/gallery/image/kMamMX5LwnmJ5mYm4YkUIKECXXNy0Y-wkGCFkkxPlMc=/medium.webp"},{"id":"6241166d-0ad3-431c-9b1d-73cc1a3499fd","slug":"burj-azizi-tower","name":"Burj Azizi Tower","developer":"Azizi Developments","area":"Sheikh Zayed Road, Burj Azizi","city":"Dubai","lat":25.22411819464,"lng":55.28317338805,"minPriceAed":9331000,"handover":"Q3 2030","imageUrl":"https://new-projects-media.propertyfinder.com/project/6241166d-0ad3-431c-9b1d-73cc1a3499fd/gallery/image/RZ3AGKM5qvpWQjnu7epdUuLrhrhBCWgTlXHIzoUK-yE=/medium.webp"},{"id":"5106921d-8698-4839-aeae-673da9d44c79","slug":"california-residences","name":"California Residences","developer":"GFH Real Estate","area":"Dubai Land, California Village, California Residence","city":"Dubai","lat":25.077702,"lng":55.324113,"minPriceAed":1100000,"handover":"Q2 2028","imageUrl":"https://new-projects-media.propertyfinder.com/project/5106921d-8698-4839-aeae-673da9d44c79/gallery/image/41ZdQCcwnzJRk_vLFWX_m02nRUDLk8QpAAD2AIQPT10=/medium.webp"},{"id":"e147e9e8-571d-4dfc-aca9-6f47b5cf85aa","slug":"calisi","name":"Calisi","developer":"Zoya Developments","area":"Dubai South (Dubai World Central)","city":"Dubai","lat":24.88975851,"lng":55.1453805,"minPriceAed":685000,"handover":"Q3 2027","imageUrl":"https://new-projects-media.propertyfinder.com/project/e147e9e8-571d-4dfc-aca9-6f47b5cf85aa/gallery/image/pQAn8SSPm3VAbOeuJPrOGccpaeeib9ONxo8SdIc-k4Q=/medium.webp"},{"id":"6d325e03-0395-49e8-9ac8-53088f478a77","slug":"canalside-marina-residences","name":"Canalside Marina Residences","developer":"Sobha Realty","area":"Umm Al Quwain Marina, Siniyah Island, Canalside Marina Residences","city":"Umm Al Quwain","lat":25.609828,"lng":55.646661,"minPriceAed":1337604,"handover":"Q4 2029","imageUrl":"https://new-projects-media.propertyfinder.com/project/6d325e03-0395-49e8-9ac8-53088f478a77/gallery/image/gk4KRmA5ZpLX6am826VFmIE0w4uNalbIh7Vn0LKvOFM=/medium.webp"},{"id":"c4ebb379-9415-46f9-aab8-6c4de3b9d00c","slug":"canterbury-waterfront","name":"Canterbury Waterfront","developer":"GFS Developers","area":"Ajman","city":"Ajman","lat":25.40539740222,"lng":55.51630053456,"minPriceAed":494190,"handover":"Q1 2029","imageUrl":"https://new-projects-media.propertyfinder.com/project/c4ebb379-9415-46f9-aab8-6c4de3b9d00c/gallery/image/AtsOZxgnOLN-gI4DgsnOCmCYTNhvNt4N5UT1oHaMJQA=/medium.webp"},{"id":"6ed18c04-f1a2-4f0f-ae22-c9c635cfe839","slug":"cape-hayat","name":"Cape Hayat By Rak","developer":"RAK Properties","area":"Mina Al Arab, Cape Hayat","city":"Ras Al Khaimah","lat":25.72276978189,"lng":55.84092859581,"minPriceAed":3119000,"handover":"Q4 2026","imageUrl":"https://new-projects-media.propertyfinder.com/project/6ed18c04-f1a2-4f0f-ae22-c9c635cfe839/gallery/image/3skAQbNCNFopeuAb6dEg7cJzuJsmBg-BWreG6A2nGc8=/medium.webp"},{"id":"ebf41533-7262-4498-a849-895f4043e31d","slug":"cape-hayat-2","name":"Cape Hayat Phase 2 By Rak","developer":"RAK Properties","area":"Mina Al Arab, Hayat Island","city":"Ras Al Khaimah","lat":25.72294858307,"lng":55.84372428838,"minPriceAed":700000,"handover":"Q2 2026","imageUrl":"https://new-projects-media.propertyfinder.com/project/ebf41533-7262-4498-a849-895f4043e31d/gallery/image/gVoIfgzpe14q-RGUW2tj63Iq4MrT03E4lTGtzIWNF64=/medium.webp"},{"id":"33c9cff5-44ed-4bc6-b749-e371ecbeee6b","slug":"capeside-marina-residences","name":"Capeside Marina Residences","developer":"Sobha Realty","area":"Umm Al Quwain Marina, Siniyah Island","city":"Umm Al Quwain","lat":25.60417113763,"lng":55.62778316444,"minPriceAed":1980000,"handover":"Q2 2030","imageUrl":"https://new-projects-media.propertyfinder.com/project/33c9cff5-44ed-4bc6-b749-e371ecbeee6b/gallery/image/IuXfRBZiioI8RLKsAcIac2Bkr-kglP69dkxcIf66Bcw=/medium.webp"},{"id":"34a2930e-44f9-43c1-907b-e84c14df7a87","slug":"capital-horizon-terraces","name":"Capital Horizon Terraces","developer":"Capital International Real Estate","area":"Dubai Islands, Capital Horizon Terrace","city":"Dubai","lat":25.29889,"lng":55.316327,"minPriceAed":2080000,"handover":"Q4 2026","imageUrl":"https://new-projects-media.propertyfinder.com/project/34a2930e-44f9-43c1-907b-e84c14df7a87/gallery/image/99O3-AzEPXBvckH6hgRakxNKSo40eWgeajnsMT7yJrA=/medium.webp"},{"id":"fc50c947-0976-4465-aa50-370cb5601ed5","slug":"carmel-residences","name":"Carmel Residences","developer":"UniEstate","area":"Jumeirah Village Circle, District 13, Carmel Residence","city":"Dubai","lat":25.051261,"lng":55.209024,"minPriceAed":745175,"handover":"Q2 2026","imageUrl":"https://new-projects-media.propertyfinder.com/project/fc50c947-0976-4465-aa50-370cb5601ed5/gallery/image/qAvdrKZ98NuZe77SWIJVhm7HbwyE-GWHQrud4Vy1swk=/medium.webp"},{"id":"615c9897-1d8d-4af1-8b1f-c5211546a45c","slug":"one-casa","name":"Casa Ahs","developer":"AHS Properties","area":"Jumeirah, One Casa","city":"Dubai","lat":25.18751290733,"lng":55.24598310267,"minPriceAed":23500000,"handover":"Q2 2027","imageUrl":"https://new-projects-media.propertyfinder.com/project/615c9897-1d8d-4af1-8b1f-c5211546a45c/gallery/image/3Rpn5etbG5vGdynNjpOANiEJDJs2dfzzhkOLrf8BB5g=/medium.webp"},{"id":"0cc2b594-d209-4e7a-8e1a-aa4093864e9e","slug":"casagrand-hermina","name":"Casagrand Hermina","developer":"Casagrand Developers","area":"Dubai Islands, Hermina By Casagrand","city":"Dubai","lat":25.2956190052,"lng":55.3199902304,"minPriceAed":2300000,"handover":"Q2 2028","imageUrl":"https://new-projects-media.propertyfinder.com/project/0cc2b594-d209-4e7a-8e1a-aa4093864e9e/gallery/image/qNsYExmwh0aN4W_UuYbwdlNDHDYM2C1bl1QIaECtq9Q=/medium.webp"},{"id":"6a2917b6-7c80-4269-a47f-9ffca2073851","slug":"casagrand-seafront-residences","name":"Casagrand Seafront Residences","developer":"Casagrand Developers","area":"Dubai Islands","city":"Dubai","lat":25.31873563,"lng":55.30294552,"minPriceAed":1800000,"handover":"Q4 2028","imageUrl":"https://new-projects-media.propertyfinder.com/project/6a2917b6-7c80-4269-a47f-9ffca2073851/gallery/image/TnuoNlTSNaVdypDNWxI6HyTc8EkrVbbwPUFqP4EAzYY=/medium.webp"},{"id":"24a02de8-61f9-4713-8d2f-11301326bd98","slug":"cedarwood-estates","name":"Cedarwood Estates","developer":"Wasl Properties","area":"Jumeirah Golf Estates, Cedarwood Estates","city":"Dubai","lat":25.004124,"lng":55.181724,"minPriceAed":12800000,"handover":"Q4 2028","imageUrl":"https://new-projects-media.propertyfinder.com/project/24a02de8-61f9-4713-8d2f-11301326bd98/gallery/image/ZPFgmuuNy71FXUjw6RS9KgbaQrwKQPpzi2nny_kqzn8=/medium.webp"},{"id":"275c404a-b173-45da-aeb4-af45777908af","slug":"celia-gardens","name":"Celia Gardens","developer":"Abou Eid Real Estate Development","area":"Nad Al Sheba, Nad Al Sheba 1, Nad Al Sheba Gardens, Celia Gardens","city":"Dubai","lat":25.13852687699,"lng":55.3175396,"minPriceAed":1600000,"handover":"Q2 2026","imageUrl":"https://new-projects-media.propertyfinder.com/project/275c404a-b173-45da-aeb4-af45777908af/gallery/image/de9cYfe6_2ssY2ctck0jPUhOd3BZGZfcG0qNVDjII74=/medium.webp"},{"id":"8f5894f2-e359-4bbc-836b-5582a183e5c7","slug":"chapter-01","name":"Chapter 01","developer":"Newbury Development","area":"Al Warsan, Al Warsan 4, International City Phase 2, Chapter 01 by Newbury","city":"Dubai","lat":25.1442949,"lng":55.4015536,"minPriceAed":510000,"handover":"Q3 2028","imageUrl":"https://new-projects-media.propertyfinder.com/project/8f5894f2-e359-4bbc-836b-5582a183e5c7/gallery/image/4teGL4r3Oe0W7yewJzahWEg71PSXGVWB7G80vtaJh7g=/medium.webp"},{"id":"511d92a6-579d-4c54-a104-0dff9b0d0c1b","slug":"chelsea-residences-2-by-damac","name":"Chelsea Residences 2 By Damac","developer":"Damac Properties","area":"Maritime City, Chelsea Residences 2 By Damac","city":"Dubai","lat":25.27946,"lng":55.259928,"minPriceAed":2160000,"handover":"Q4 2029","imageUrl":"https://new-projects-media.propertyfinder.com/project/511d92a6-579d-4c54-a104-0dff9b0d0c1b/gallery/image/7y44CYmkXm37ahGVCzGAyeUD9G7MMp6nAQXrdnuG944=/medium.webp"},{"id":"1fa2dd6d-355d-433a-a65d-fcec3b1d8912","slug":"cheval-residences","name":"Cheval Residences","developer":"Avenew Properties","area":"Dubai Islands, Cheval Residences","city":"Dubai","lat":25.308719,"lng":55.315838,"minPriceAed":2800000,"handover":"Q1 2029","imageUrl":"https://new-projects-media.propertyfinder.com/project/1fa2dd6d-355d-433a-a65d-fcec3b1d8912/gallery/image/_V0z7OxhZzFMhraZjI3UJnl_1XlyYTIb_AcgkATX1rA=/medium.webp"},{"id":"96f69cdb-edc9-410a-a45c-c5587f22d340","slug":"chevalia-estate-phase-2-by-emaar","name":"Chevalia Estate Phase 2 By Emaar","developer":"Emaar Properties","area":"Dubai Investment Park (DIP), Dubai Investment Park 2 (DIP 2), Grand Polo Club and Resort, Chevalia Estate","city":"Dubai","lat":24.962722222,"lng":55.2229881534,"minPriceAed":7880000,"handover":"Q2 2029","imageUrl":"https://new-projects-media.propertyfinder.com/project/96f69cdb-edc9-410a-a45c-c5587f22d340/gallery/image/V_QIjE_i3_khyPp6xnFqzcMpB-EHXcTMSgtLtSq-Lx4=/medium.webp"},{"id":"e970c677-6ef0-4dd1-bc5a-81d8c630cb42","slug":"chevalia-fields-at-grand-polo-club-and-resort","name":"Chevalia Fields at Grand Polo Club & Resort","developer":"Emaar Properties","area":"Dubai Investment Park (DIP), Dubai Investment Park 2 (DIP 2), Grand Polo Club and Resort, Chevalia Fields","city":"Dubai","lat":24.9736097,"lng":55.2026969,"minPriceAed":7340000,"handover":"Q2 2029","imageUrl":"https://new-projects-media.propertyfinder.com/project/e970c677-6ef0-4dd1-bc5a-81d8c630cb42/gallery/image/EJ2eF0tojQo6XIYxHf4Dr_l6Ik7laZrTrVf6LnEHwW8=/medium.webp"},{"id":"a6da3d8a-c365-4d29-aa68-badfc6212b5d","slug":"chion","name":"Chion","developer":"Aldar Properties PJSC","area":"Dubai Land, Athlon by Aldar, Chion at Athlon","city":"Dubai","lat":25.05654229396,"lng":55.30888089815,"minPriceAed":4600000,"handover":"Q3 2028","imageUrl":"https://new-projects-media.propertyfinder.com/project/a6da3d8a-c365-4d29-aa68-badfc6212b5d/gallery/image/bvIR9eD_amwU4QL6O-j8tmosvSRQxRuZxiCZXirLKJw=/medium.webp"},{"id":"dbd79068-fef6-4c98-ad9c-0f5d7cd0fc9d","slug":"city-walk-crestlane-3","name":"City Walk Crestlane 3","developer":"Meraas Holding","area":"City Walk, City Walk Crestlane, City Walk Crestlane 3","city":"Dubai","lat":25.208223,"lng":55.257024,"minPriceAed":2600000,"handover":"Q4 2028","imageUrl":"https://new-projects-media.propertyfinder.com/project/dbd79068-fef6-4c98-ad9c-0f5d7cd0fc9d/gallery/image/4tkoUNGynw3N5O275WfIp5A2JUaGrmkfMCD3-tU6Lmo=/medium.webp"},{"id":"d7356e52-a954-4ba1-8343-722be388feb7","slug":"city-walk-crestlane-phase-5","name":"City Walk Crestlane Phase 5","developer":"Meraas Holding","area":"City Walk, City Walk Crestlane, City Walk Crestlane 5","city":"Dubai","lat":25.2061156815,"lng":55.2570234066,"minPriceAed":2800000,"handover":"Q2 2030","imageUrl":"https://new-projects-media.propertyfinder.com/project/d7356e52-a954-4ba1-8343-722be388feb7/gallery/image/aYB_etCJyr7pX-7qmpUv5nurwArnoklSxbR2twSNBJA=/medium.webp"},{"id":"f78544fd-419d-4ec6-bf9f-d1ba1eb51034","slug":"city-walk-phase-3","name":"City Walk Phase 3 By Meraas","developer":"Meraas Holding","area":"City Walk, City Walk Phase 3","city":"Dubai","lat":25.2083616771,"lng":55.25760318651,"minPriceAed":2500000,"handover":"Q2 2029","imageUrl":"https://new-projects-media.propertyfinder.com/project/f78544fd-419d-4ec6-bf9f-d1ba1eb51034/gallery/image/j78NuuUfzrZROq80vDP9xsrmxt1X1uibPB6G714c7Vc=/medium.webp"},{"id":"cb3deedc-7928-444f-87e6-0d9c260e3b95","slug":"coastline-beach-residences","name":"Coastline Beach Residences","developer":"Sobha Realty","area":"Umm Al Quwain Marina, Siniyah Island, Coastline Beach Residences","city":"Umm Al Quwain","lat":25.61472,"lng":55.629142,"minPriceAed":1215000,"handover":"Q3 2028","imageUrl":"https://new-projects-media.propertyfinder.com/project/cb3deedc-7928-444f-87e6-0d9c260e3b95/gallery/image/PSxEhovxrNhSKbeaCoAb3whHPSXDM3Jus0gLdQJK4gk=/medium.webp"},{"id":"a6b68d6b-97ef-42a3-a3d8-43bbfd2dac95","slug":"colibri-views","name":"Colibri Views","developer":"Major Developers","area":"RAK Central, Colibri Views","city":"Ras Al Khaimah","lat":25.6893802217,"lng":55.7958241567,"minPriceAed":797000,"handover":"Q4 2028","imageUrl":"https://new-projects-media.propertyfinder.com/project/a6b68d6b-97ef-42a3-a3d8-43bbfd2dac95/gallery/image/3yQ_Te6kKoWx9LjGm_0kul-QraaAnFvmcEFbxcP-zlI=/medium.webp"},{"id":"2ed8ea87-eea8-483b-9562-fb795d7d0144","slug":"coral-beach-villas","name":"Coral Beach Villas","developer":"Sobha Realty","area":"Umm Al Quwain Marina, Siniyah Island, Coral Beach Villas","city":"Umm Al Quwain","lat":25.61589956422,"lng":55.6212221999,"minPriceAed":17300000,"handover":"Q4 2027","imageUrl":"https://new-projects-media.propertyfinder.com/project/2ed8ea87-eea8-483b-9562-fb795d7d0144/gallery/image/HFqrKsFH6v6tYtlRbKKAYcDXqKZARIvig3ZZGxWGchA=/medium.webp"},{"id":"585612d1-7ed7-4ca8-87ad-0367af284730","slug":"coral-beach-villas-phase-2","name":"Coral Beach Villas Phase 2","developer":"Sobha Realty","area":"Umm Al Quwain Marina, Siniyah Island, Coral Beach Villas","city":"Umm Al Quwain","lat":25.61589956422,"lng":55.6212221999,"minPriceAed":17342736,"handover":"Q4 2028","imageUrl":"https://new-projects-media.propertyfinder.com/project/585612d1-7ed7-4ca8-87ad-0367af284730/gallery/image/hcn5XEEBQLrK9hXcV7j08Y_6e0ni__QXxypV4Q3l_EM=/medium.webp"},{"id":"42df5271-6bed-4cd7-908a-a480e0314541","slug":"coralis-residences","name":"Coralis Residences","developer":"Palladium Development","area":"Meydan","city":"Dubai","lat":25.15790459,"lng":55.30040604,"minPriceAed":1950000,"handover":"Q2 2028","imageUrl":"https://new-projects-media.propertyfinder.com/project/42df5271-6bed-4cd7-908a-a480e0314541/gallery/image/es9cJF04pxajac42Au9A7qm-3P2V_Vj8Gzpp81iPuFE=/medium.webp"},{"id":"607819d5-9a56-4c3d-9900-16c083f132ba","slug":"costa-mare","name":"Costa Mare","developer":"Ellington","area":"Al Marjan Island, Costa Mare","city":"Ras Al Khaimah","lat":25.68052541747,"lng":55.74527964149,"minPriceAed":2775828,"handover":"Q3 2028","imageUrl":"https://new-projects-media.propertyfinder.com/project/607819d5-9a56-4c3d-9900-16c083f132ba/gallery/image/yGDoIWkNA5-jJJjFrqPBhwW7fr6lUJk3qPG86jmNsXg=/medium.webp"},{"id":"803a6610-861b-4754-9a85-556f693f1780","slug":"courtyard-by-marriott","name":"Courtyard by Marriott","developer":"Khamas Group Investment","area":"Jumeirah Village Circle","city":"Dubai","lat":25.05638764826,"lng":55.20812137772,"minPriceAed":855156,"handover":"Q4 2025","imageUrl":"https://new-projects-media.propertyfinder.com/project/803a6610-861b-4754-9a85-556f693f1780/gallery/image/Z9VMrsZcWZw4X1TzeAmWFaR6Q_Onj15QnwkyNlWDMqA=/medium.webp"},{"id":"0946b12e-67bd-4f15-9454-2bafd025d92d","slug":"cove-at-lunaya-terraces","name":"Cove at Lunaya Terraces","developer":"Zaya","area":"Jebel Ali, Jebel Ali Village","city":"Dubai","lat":25.034937,"lng":55.117054,"minPriceAed":2181069,"handover":"Q3 2029","imageUrl":"https://new-projects-media.propertyfinder.com/project/0946b12e-67bd-4f15-9454-2bafd025d92d/gallery/image/RePUYbbF7YwsRS8922yjJydN0N5eEZMNSXYulYDfznA=/medium.webp"},{"id":"4891a9b5-5aec-478f-a147-1e23fb2aba9a","slug":"creekside-residence","name":"Creekside Residence","developer":"Al Zorah Development","area":"Al Zorah, Creekside","city":"Ajman","lat":25.42867352372,"lng":55.49553869153,"minPriceAed":1144000,"handover":"Q1 2028","imageUrl":"https://new-projects-media.propertyfinder.com/project/4891a9b5-5aec-478f-a147-1e23fb2aba9a/gallery/image/Dz3IiuyawzcrXc13EBHLJUN6_7K0-QlND-Z5L6kc_IQ=/medium.webp"},{"id":"6f97cf39-b977-4127-a68c-801cd8b43158","slug":"cresswell-plaza","name":"Cresswell Plaza","developer":"Merath Development","area":"Dubai South (Dubai World Central), Residential District, Cresswell Plaza","city":"Dubai","lat":24.9373662508,"lng":55.2213542858,"minPriceAed":1110000,"handover":"Q3 2026","imageUrl":"https://new-projects-media.propertyfinder.com/project/6f97cf39-b977-4127-a68c-801cd8b43158/gallery/image/jMYt74xb2d08R8NQ3g7aVZVF8B7N4UMz8h_Ku9ulDog=/medium.webp"},{"id":"d55d0284-e0b5-4440-8e79-5e9ba76a0afe","slug":"crystal-residences-tower-2","name":"Crystal Residences Tower 2","developer":"Eagle Hills","area":"Al Khan, Maryam Island, Crystal Residences","city":"Sharjah","lat":25.326539,"lng":55.361833,"minPriceAed":850000,"handover":"Q4 2025","imageUrl":"https://new-projects-media.propertyfinder.com/project/d55d0284-e0b5-4440-8e79-5e9ba76a0afe/gallery/image/iDglWLa9B3kAxGn9H-NZyTW55E1X6XrzaiCq8-ti_Pw=/medium.webp"},{"id":"6aeb37ab-4aa4-421f-83b8-9dece4572a48","slug":"crystal-springs-villa","name":"Crystal Springs Villa","developer":"Nakheel","area":"Palm Jebel Ali","city":"Dubai","lat":25.00455081527,"lng":54.98903382113,"minPriceAed":18100000,"handover":"Q4 2028","imageUrl":"https://new-projects-media.propertyfinder.com/project/6aeb37ab-4aa4-421f-83b8-9dece4572a48/gallery/image/v42RmxrhfPUlA6VzHzOjelO1QbOWio0gTPvrgBbr8uM=/medium.webp"},{"id":"7c66f54c-9450-4120-a403-9aaff408f5dc","slug":"dar-global-villas","name":"D Villas","developer":"Darglobal","area":"Jumeirah Golf Estates, DG Villas","city":"Dubai","lat":25.01020272282,"lng":55.19802569834,"minPriceAed":6142650,"handover":"Q4 2028","imageUrl":"https://new-projects-media.propertyfinder.com/project/7c66f54c-9450-4120-a403-9aaff408f5dc/gallery/image/XEGHXF-ADaSZZ7_tg9pP7ujk5idqNVgY073iEdR_bH8=/medium.webp"},{"id":"351d3ec3-ece1-4652-b532-ec0e5e7e7ce2","slug":"dalmore-tower","name":"Dalmore Tower","developer":"Dalmore Development","area":"Dubai Land Residence Complex, Dalmore Tower","city":"Dubai","lat":25.0916161612,"lng":55.3829432803,"minPriceAed":1003037,"handover":"Q2 2026","imageUrl":"https://new-projects-media.propertyfinder.com/project/351d3ec3-ece1-4652-b532-ec0e5e7e7ce2/gallery/image/--w0ggfRaAcPMnA7qZpaIfW9OLAKVEHiUTo4xOYq6_4=/medium.webp"},{"id":"f7dd28d9-8f72-49a3-ba42-79e0dbc42b37","slug":"damac-islands","name":"Damac Islands","developer":"Damac Properties","area":"DAMAC Islands","city":"Dubai","lat":25.02983054035,"lng":55.30452767724,"minPriceAed":2490000,"handover":"Q4 2028","imageUrl":"https://new-projects-media.propertyfinder.com/project/f7dd28d9-8f72-49a3-ba42-79e0dbc42b37/gallery/image/lETAkaYfWk87aYzzJcN1O5ssJdqcbs5CA5UOOvUX1K8=/medium.webp"},{"id":"9f1b2388-8e95-4e4a-9228-f03bfaca7e1c","slug":"damac-lagoon-lagoon-views-11","name":"Damac Lagoon - Lagoon Views 11","developer":"Damac Properties","area":"Damac Lagoons, Lagoon Views, Lagoon Views 11","city":"Dubai","lat":25.01283116608,"lng":55.22592795372,"minPriceAed":1512000,"handover":"Q2 2027","imageUrl":"https://new-projects-media.propertyfinder.com/project/9f1b2388-8e95-4e4a-9228-f03bfaca7e1c/gallery/image/xt1SZd4P96K0M9MHHsCmTNPZEaTg5bKruiwjNACufJc=/medium.webp"},{"id":"c7939ee7-2be4-406c-8af1-00cae2fcee48","slug":"damac-lagoon-views-andalucia","name":"Damac Lagoon Views Andalucia","developer":"Damac Properties","area":"Damac Lagoons, Lagoon Views, Andalucia","city":"Dubai","lat":25.00878582327,"lng":55.22640988096,"minPriceAed":979000,"handover":"Q1 2027","imageUrl":"https://new-projects-media.propertyfinder.com/project/c7939ee7-2be4-406c-8af1-00cae2fcee48/gallery/image/-tzfG8tci4iIXw98VPx01QRfamL5XbjEs66MmVYjM34=/medium.webp"},{"id":"8f25b083-321f-452a-9c80-f9e730a87fb2","slug":"damac-lagoons-lagoon-views-12","name":"Damac Lagoons - Lagoon Views 12","developer":"Damac Properties","area":"Damac Lagoons, Lagoon Views, Lagoon Views 12","city":"Dubai","lat":25.00621735547,"lng":55.22903849037,"minPriceAed":1100000,"handover":"Q2 2027","imageUrl":"https://new-projects-media.propertyfinder.com/project/8f25b083-321f-452a-9c80-f9e730a87fb2/gallery/image/-ZnqnBTBSk7B_lIgGR7AHMsXOdOl8AVu7RQLKRXhcEg=/medium.webp"},{"id":"60c7f14e-78c8-4832-acb3-f84d29c382a2","slug":"damac-riverside","name":"Damac Riverside","developer":"Damac Properties","area":"Dubai Investment Park (DIP), Dubai Investment Park 2 (DIP 2), Damac Riverside","city":"Dubai","lat":24.98127020527,"lng":55.24312219913,"minPriceAed":3626000,"handover":"Q4 2027","imageUrl":"https://new-projects-media.propertyfinder.com/project/60c7f14e-78c8-4832-acb3-f84d29c382a2/gallery/image/5e9cii55z6FHSKPY7XgMj7M1j_7FmeRKZWW8myO8H-0=/medium.webp"},{"id":"47d5f29a-5bb7-4ee6-9021-16058a071e4c","slug":"darb","name":"Darb By Alef Group","developer":"Alef Group","area":"Muwaileh, Al Mamsha","city":"Sharjah","lat":25.310526,"lng":55.46319,"minPriceAed":639000,"handover":"Q4 2025","imageUrl":"https://new-projects-media.propertyfinder.com/project/47d5f29a-5bb7-4ee6-9021-16058a071e4c/gallery/image/zezhAiNzgWrhI089Vxs2Lhr9D7msaOCgwn_XOrgA7QY=/medium.webp"},{"id":"2ca6bbef-6ee6-4b8b-97da-24ab7c243c05","slug":"darb-2","name":"Darb Phase 2 By Alef Group","developer":"Alef Group","area":"Muwaileh","city":"Sharjah","lat":25.29867603,"lng":55.44880726,"minPriceAed":695000,"handover":"Q1 2028","imageUrl":"https://new-projects-media.propertyfinder.com/project/2ca6bbef-6ee6-4b8b-97da-24ab7c243c05/gallery/image/nxVyAYQ5fZO-ODPVW1drRmQK9osXbrkyE3csXpPUst4=/medium.webp"},{"id":"d7ed9d75-7b0b-4370-97cb-dec5fd5f8ff4","slug":"davinci-tower","name":"DaVinci Tower","developer":"Dar AL Arkan Properties","area":"Business Bay, DaVinci Tower","city":"Dubai","lat":25.18627724349,"lng":55.28331854233,"minPriceAed":1320000,"handover":"Q2 2024","imageUrl":"https://new-projects-media.propertyfinder.com/project/d7ed9d75-7b0b-4370-97cb-dec5fd5f8ff4/gallery/image/y1bYtn14FrWKj7yUd_HHpV0V-QahBtVVFdG5nYpiRK0=/medium.webp"},{"id":"3d7f8be1-f209-41b0-a355-1f0c369e2fc0","slug":"deem","name":"Deem","developer":"Alef Group","area":"Hayyan","city":"Sharjah","lat":25.28151999622,"lng":55.58534955315,"minPriceAed":1690000,"handover":"Q4 2026","imageUrl":"https://new-projects-media.propertyfinder.com/project/3d7f8be1-f209-41b0-a355-1f0c369e2fc0/gallery/image/zgG4jcFdR4zNEDt7aDly6qw1PZkqLUUt2-q4lxKrjp0=/medium.webp"},{"id":"069b6dc0-e073-4960-80dc-59779358e140","slug":"delphi","name":"Delphi","developer":"Aldar Properties PJSC","area":"Dubai Land, Athlon by Aldar, Delphi at Athlon","city":"Dubai","lat":25.06332884001,"lng":55.31514564418,"minPriceAed":2800000,"handover":"Q2 2028","imageUrl":"https://new-projects-media.propertyfinder.com/project/069b6dc0-e073-4960-80dc-59779358e140/gallery/image/y1zkCqQsxFt3vi876HJO_b_UAaCz2tvfPHPfh7O8ADk=/medium.webp"},{"id":"8473dafb-2cbd-4726-95d8-7d8e4fa57cdf","slug":"sobha-delphine-beach-residences","name":"Delphine Beach Residences","developer":"Sobha Realty","area":"Umm Al Quwain Marina, Siniyah Island, Delphine Beach Residences","city":"Umm Al Quwain","lat":25.60544198648,"lng":55.62224146701,"minPriceAed":750000,"handover":"Q4 2027","imageUrl":"https://new-projects-media.propertyfinder.com/project/8473dafb-2cbd-4726-95d8-7d8e4fa57cdf/gallery/image/qB2y-I7CcsqzvepYSjMmjvQzh9xnhSerHL7CG2Y0iXw=/medium.webp"},{"id":"cfa8045f-e6f4-4b70-ba27-b9d5e34fe898","slug":"derby-heights","name":"Derby Heights","developer":"Amis properties","area":"Meydan","city":"Dubai","lat":25.15790459,"lng":55.30040604,"minPriceAed":1200000,"handover":"Q4 2027","imageUrl":"https://new-projects-media.propertyfinder.com/project/cfa8045f-e6f4-4b70-ba27-b9d5e34fe898/gallery/image/twYOsU8iqMyfmn_CKzA94_eZ8ZC_Zj4FxgOSqklbvFM=/medium.webp"},{"id":"4a2107cc-921d-436b-9259-460fe0db1792","slug":"do-hotels-and-residences","name":"Do Hotels & Residences","developer":"One Development","area":"Dubai Islands, Do Hotels & Residences","city":"Dubai","lat":25.2846519168,"lng":55.2939784577,"minPriceAed":2191000,"handover":"Q4 2027","imageUrl":"https://new-projects-media.propertyfinder.com/project/4a2107cc-921d-436b-9259-460fe0db1792/gallery/image/Hb3oYoaliCkLoaLKbu3Gc0iuCn4H1xFLOtFky5DMRXE=/medium.webp"},{"id":"0581660e-c451-4469-ba45-7262740946fe","slug":"east-residence-2-at-serenia-district","name":"East Residence 2 At Serenia District","developer":"Palma Development","area":"Jumeirah Islands, Serenia District, Serenia District East","city":"Dubai","lat":25.067563,"lng":55.1460561,"minPriceAed":3719000,"handover":"Q2 2030","imageUrl":"https://new-projects-media.propertyfinder.com/project/0581660e-c451-4469-ba45-7262740946fe/gallery/image/mcsbOdbSlwFNdz5pC4B3wGWlv8xC76ZiGZBmcG3Ej2s=/medium.webp"},{"id":"0f5a06a4-695e-494f-bdf8-3fb9ba863c16","slug":"east-residence-3-at-serenia-district","name":"East Residence 3 At Serenia District","developer":"Palma Development","area":"Jumeirah Islands, Serenia District, Serenia District East","city":"Dubai","lat":25.067563,"lng":55.1460561,"minPriceAed":1958000,"handover":"Q2 2030","imageUrl":"https://new-projects-media.propertyfinder.com/project/0f5a06a4-695e-494f-bdf8-3fb9ba863c16/gallery/image/ZcFxXMRJt3tjSpy5mGycpGLmsVq94hkmvl1SqhxFG2s=/medium.webp"},{"id":"a1968c9d-0cb4-4647-b0a0-97fb465e6e0e","slug":"east-residence-4-at-serenia-district","name":"East Residence 4 At Serenia District","developer":"Palma Development","area":"Jumeirah Islands, Serenia District, Serenia District East","city":"Dubai","lat":25.067563,"lng":55.1460561,"minPriceAed":1960000,"handover":"Q2 2030","imageUrl":"https://new-projects-media.propertyfinder.com/project/a1968c9d-0cb4-4647-b0a0-97fb465e6e0e/gallery/image/ZcFxXMRJt3tjSpy5mGycpGLmsVq94hkmvl1SqhxFG2s=/medium.webp"},{"id":"fc7dd227-d3e9-4e1b-b5a0-f73d7104ef22","slug":"east-residence-5-at-serenia-district","name":"East Residence 5 At Serenia District","developer":"Palma Development","area":"Jumeirah Islands, Serenia District, Serenia District East","city":"Dubai","lat":25.067563,"lng":55.1460561,"minPriceAed":1960000,"handover":"Q2 2030","imageUrl":"https://new-projects-media.propertyfinder.com/project/fc7dd227-d3e9-4e1b-b5a0-f73d7104ef22/gallery/image/oGwUJesevfgSK__g-Q6nOXvtKns1lVn9GQLCD-h0ZNo=/medium.webp"},{"id":"d9c1bef9-a988-4502-ab6c-f5ab272f0f02","slug":"east-residence-6-at-serenia-district","name":"East Residence 6 At Serenia District","developer":"Palma Development","area":"Jumeirah Islands, Serenia District, Serenia District East","city":"Dubai","lat":25.067563,"lng":55.1460561,"minPriceAed":1960000,"handover":"Q2 2030","imageUrl":"https://new-projects-media.propertyfinder.com/project/d9c1bef9-a988-4502-ab6c-f5ab272f0f02/gallery/image/oGwUJesevfgSK__g-Q6nOXvtKns1lVn9GQLCD-h0ZNo=/medium.webp"},{"id":"f54c0b0c-762d-4757-abb8-865c39050ab2","slug":"edgewater-residences-2","name":"Edgewater Residences Phase 2 By MGS","developer":"MGS Development","area":"Dubai Islands, Edgewater Residences, Edgewater Residences 2","city":"Dubai","lat":25.30050957223,"lng":55.29928404663,"minPriceAed":1945300,"handover":"Q3 2026","imageUrl":"https://new-projects-media.propertyfinder.com/project/f54c0b0c-762d-4757-abb8-865c39050ab2/gallery/image/NYFiDmnIb8b3zJExkkdLflm6oNZ4hy-IXn2-L1B3dsA=/medium.webp"},{"id":"2ddf383f-37b1-4e6c-8390-fa68285bbbbc","slug":"edgewater-residences-3","name":"Edgewater Residences Phase 3 By MGS","developer":"MGS Development","area":"Dubai Islands, Edgewater Residences, Edgewater Residences 3","city":"Dubai","lat":25.30076228859,"lng":55.29807555952,"minPriceAed":1945300,"handover":"Q3 2026","imageUrl":"https://new-projects-media.propertyfinder.com/project/2ddf383f-37b1-4e6c-8390-fa68285bbbbc/gallery/image/OxDxo80nI5xFhVcSLGXPBwo8xyj_YDFd8kofMcaOZMU=/medium.webp"},{"id":"ac447121-4f8e-421f-8164-7b527c3d591f","slug":"edra-villas","name":"Edra Villas","developer":"H&H Development","area":"Mohammed Bin Rashid City, Eden Hills","city":"Dubai","lat":25.1076236,"lng":55.2681004,"minPriceAed":79900000,"handover":"Q2 2028","imageUrl":"https://new-projects-media.propertyfinder.com/project/ac447121-4f8e-421f-8164-7b527c3d591f/gallery/image/p7ezrRULJIbhmrY-J-h4tiis5XmlrQQH-P8ntaMUmhM=/medium.webp"},{"id":"225d7931-a9cc-43d3-9d96-24d8c6f0912a","slug":"ela-by-omniyat","name":"Ela By Omniyat","developer":"Omniyat Group","area":"Palm Jumeirah, The Crescent, ELA Residences","city":"Dubai","lat":25.140423,"lng":55.139493,"minPriceAed":43300000,"handover":"Q1 2028","imageUrl":"https://new-projects-media.propertyfinder.com/project/225d7931-a9cc-43d3-9d96-24d8c6f0912a/gallery/image/wX8vNPzCLBPsglRQFkZ3gdJYBAtyy5dzq1vS1bp2NcQ=/medium.webp"},{"id":"b4d4de5c-8943-420e-96c2-f6aa4c3577d8","slug":"elar1s-axis","name":"ELAR1S Axis","developer":"Object 1","area":"Jumeirah Village Triangle, District 1, Elar1s Axis","city":"Dubai","lat":25.0350930158,"lng":55.1761969267,"minPriceAed":817000,"handover":"Q3 2028","imageUrl":"https://new-projects-media.propertyfinder.com/project/b4d4de5c-8943-420e-96c2-f6aa4c3577d8/gallery/image/W5Nnk5oPwGZFwxf7ZP1URC4pWATpGn2TG1FFCo_z9Fc=/medium.webp"},{"id":"e7f060ab-2465-431b-a9b3-a0edf45f6967","slug":"elar1s-sky","name":"ELAR1S Sky","developer":"Object 1","area":"Jumeirah Village Triangle, District 3, Elar1s Sky","city":"Dubai","lat":25.0468605244,"lng":55.1861321,"minPriceAed":767000,"handover":"Q4 2028","imageUrl":"https://new-projects-media.propertyfinder.com/project/e7f060ab-2465-431b-a9b3-a0edf45f6967/gallery/image/jS5yTLcErwccQbTelMLNQMxIpNP2IiA5pN6PSz1Rk4I=/medium.webp"},{"id":"3299518c-61f8-4a82-9cbe-eb3fa31e38b7","slug":"elevia-residences-phase-2-by-valores","name":"Elevia Residences Phase 3 by Valores","developer":"Valores Property Development","area":"Al Warsan, Al Warsan 4, International City Phase 2, Elevia Residences","city":"Dubai","lat":25.1440877586,"lng":55.3943601981,"minPriceAed":450000,"handover":"Q1 2027","imageUrl":"https://new-projects-media.propertyfinder.com/project/3299518c-61f8-4a82-9cbe-eb3fa31e38b7/gallery/image/jfuGm77VCILvU29W08NhUyuZCAMOJmHYVJJYGu46l0c=/medium.webp"},{"id":"e7fcb0bd-650f-4c7e-a260-a36ad6a2c668","slug":"ellington-ocean-house","name":"Ellington Ocean House","developer":"Ellington","area":"Palm Jumeirah, The Crescent, Ocean House","city":"Dubai","lat":25.133206,"lng":55.151894,"minPriceAed":22580828,"handover":"Q4 2026","imageUrl":"https://new-projects-media.propertyfinder.com/project/e7fcb0bd-650f-4c7e-a260-a36ad6a2c668/gallery/image/HKfGedC2uJ4tSCkj9X_kt7esu2Tgra8f4FBaWCDakHA=/medium.webp"},{"id":"f1010763-e700-4c9b-b511-bb14f5d66e1d","slug":"ellington-sands","name":"Ellington Sands","developer":"Ellington","area":"Dubai Islands, Ellington Sands","city":"Dubai","lat":25.2955269328,"lng":55.2927405871,"minPriceAed":1700000,"handover":"Q4 2028","imageUrl":"https://new-projects-media.propertyfinder.com/project/f1010763-e700-4c9b-b511-bb14f5d66e1d/gallery/image/q2VL_zkBdcalw9FrstnEk9_kIlVkvVLZkTrs0ci00kM=/medium.webp"},{"id":"569bbd52-ce3f-443f-86e0-2d2577705638","slug":"elo-3","name":"ELO 3","developer":"Damac Properties","area":"Damac Hills 2, Elo, Elo 3","city":"Dubai","lat":24.98255695635,"lng":55.39038322454,"minPriceAed":1311000,"handover":"Q3 2027","imageUrl":"https://new-projects-media.propertyfinder.com/project/569bbd52-ce3f-443f-86e0-2d2577705638/gallery/image/4WU9OSf92bwYc8b7XJs2EZVB0ZKMqtrNnRBXcpNp9WE=/medium.webp"},{"id":"24d8ce1a-eb74-4060-9681-50b37a188594","slug":"eltiera-views-2","name":"Eltiera Views 2","developer":"Ellington","area":"Jumeirah Islands, Eltiera Views","city":"Dubai","lat":25.0643893,"lng":55.142888,"minPriceAed":2221828,"handover":"Q4 2029","imageUrl":"https://new-projects-media.propertyfinder.com/project/24d8ce1a-eb74-4060-9681-50b37a188594/gallery/image/UYAmt9jrNv8mMbLpYVwk581Vp9qZJgDDcMLxQ-w6zTI=/medium.webp"},{"id":"294267ab-c22c-4b14-82be-0b33cc1036d3","slug":"emerge-residences","name":"Emerge Residences","developer":"NAAS Development","area":"Meydan, Meydan Avenue, Emerge Residences","city":"Dubai","lat":25.149072,"lng":55.288257,"minPriceAed":1600000,"handover":"Q4 2027","imageUrl":"https://new-projects-media.propertyfinder.com/project/294267ab-c22c-4b14-82be-0b33cc1036d3/gallery/image/FDaGlka4sZqQobcj74jN2IUnCarCXp6al981ul2-gns=/medium.webp"},{"id":"a7b340ae-5517-4880-9e37-b919a164b941","slug":"emerge-residences","name":"Émerge Residences","developer":"Elysian Development","area":"Meydan, Meydan Avenue, Emerge Residences","city":"Dubai","lat":25.149072,"lng":55.288257,"minPriceAed":1590000,"handover":"Q4 2027","imageUrl":"https://new-projects-media.propertyfinder.com/project/a7b340ae-5517-4880-9e37-b919a164b941/gallery/image/GlP_jZLidZQblTizB_yE3RSqZxb22IKx-_kL3ZlOuYI=/medium.webp"},{"id":"36dd0009-34dc-45bb-a69f-f7eed881a01b","slug":"enre-residence","name":"Enre Residence","developer":"Imtiaz Developments","area":"Dubai South (Dubai World Central), Residential District, Enre Residence by Imtiaz","city":"Dubai","lat":24.943477704,"lng":55.2166499186,"minPriceAed":673000,"handover":"Q3 2028","imageUrl":"https://new-projects-media.propertyfinder.com/project/36dd0009-34dc-45bb-a69f-f7eed881a01b/gallery/image/oiEmpmCnSJt2XIuP8rkwXFpt4Az83hPI54SI8L_7QwY=/medium.webp"},{"id":"f3fe3754-b0bf-4ab3-8446-4963ecccdac2","slug":"enta-mina-residences","name":"Enta Mina Residences","developer":"RAK Properties","area":"Mina Al Arab, Hayat Island, Enta Mina Residences","city":"Ras Al Khaimah","lat":25.719335371,"lng":55.8404829851,"minPriceAed":896000,"handover":"Q1 2028","imageUrl":"https://new-projects-media.propertyfinder.com/project/f3fe3754-b0bf-4ab3-8446-4963ecccdac2/gallery/image/vxejMWhsgcDXMOVttDnLl-le7ekUjjYEvCdpmMVqSIQ=/medium.webp"},{"id":"2e22da14-c5a5-467f-b499-9c3b1529e241","slug":"essenlife","name":"Essenlife","developer":"Object 1","area":"Jumeirah Village Triangle, District 3, Essenl1fe","city":"Dubai","lat":25.04017414132,"lng":55.18319537302,"minPriceAed":752000,"handover":"Q4 2027","imageUrl":"https://new-projects-media.propertyfinder.com/project/2e22da14-c5a5-467f-b499-9c3b1529e241/gallery/image/AdiN2eHR2YCkkupjs7cNZuIFpbyhUKZ-Hj6svC1pkyY=/medium.webp"},{"id":"eea08630-d5a9-45ab-8e33-00e04cfe1385","slug":"evergr1n-house-3","name":"Evergr1n House 3","developer":"Object 1","area":"Al Satwa, Jumeirah Garden City, Evergr1n House 3","city":"Dubai","lat":25.2209678668,"lng":55.2719961884,"minPriceAed":1098000,"handover":"Q1 2028","imageUrl":"https://new-projects-media.propertyfinder.com/project/eea08630-d5a9-45ab-8e33-00e04cfe1385/gallery/image/ceUR7qbENVMOJzEZv4mBW8Kstp_CGBYHZgmWYSyvDXk=/medium.webp"},{"id":"2bfc1426-ea1b-44da-a601-a5cb1d93fbd7","slug":"evergr1n-house-4","name":"Evergr1n House 4","developer":"Object 1","area":"Al Satwa, Jumeirah Garden City, Evergr1n House 4","city":"Dubai","lat":25.2240745874,"lng":55.2789966442,"minPriceAed":1140000,"handover":"Q2 2026","imageUrl":"https://new-projects-media.propertyfinder.com/project/2bfc1426-ea1b-44da-a601-a5cb1d93fbd7/gallery/image/2rrwwDrWm7L0uEodWJivwRHSX-CltlSOUgWmriETHeI=/medium.webp"},{"id":"da4b5fbd-4b5f-4221-bb79-17eef4388010","slug":"eywa-the-tree-of-life","name":"Eywa The Tree of Life","developer":"R. Evolution","area":"Business Bay, Eywa","city":"Dubai","lat":25.18311279253,"lng":55.27318136402,"minPriceAed":12490000,"handover":"Q2 2026","imageUrl":"https://new-projects-media.propertyfinder.com/project/da4b5fbd-4b5f-4221-bb79-17eef4388010/gallery/image/DGqgARVMUKKdWjTijdTExIj6VvR66UxK5k8lS4ocfOY=/medium.webp"},{"id":"32d92cda-2e54-47bb-90e7-fe67cbf94c97","slug":"fairmont-residences-solara-tower","name":"Fairmont Residences Solara Tower By Sol","developer":"Sol Properties","area":"Downtown Dubai, Fairmont Residences Solara Tower","city":"Dubai","lat":25.1921457857,"lng":55.27506721582,"minPriceAed":2700000,"handover":"Q3 2027","imageUrl":"https://new-projects-media.propertyfinder.com/project/32d92cda-2e54-47bb-90e7-fe67cbf94c97/gallery/image/TaxK5kOV5e06gBTUuRUUVAqnzNH5P04xZNg7dLyGPaY=/medium.webp"},{"id":"77119bb6-fdde-482b-9127-1c0ec06d2cf1","slug":"fashion-tv-acacia","name":"Fashion TV Acacia","developer":"BNW Developments","area":"Al Marjan Island","city":"Ras Al Khaimah","lat":25.67808188304,"lng":55.74006227959,"minPriceAed":1960000,"handover":"Q2 2028","imageUrl":"https://new-projects-media.propertyfinder.com/project/77119bb6-fdde-482b-9127-1c0ec06d2cf1/gallery/image/zvq3ID1k7cYQuWF3g5mBY1SPD4WkFUbFn0h5qqHsNC0=/medium.webp"},{"id":"9a373288-6b15-4d9a-833c-670c779cc97a","slug":"fay-gardens-at-fay-hills","name":"Fay Gardens at Fay Hills","developer":"Taraf Properties","area":"Masdar City","city":"Abu Dhabi","lat":24.4908186,"lng":54.3687862,"minPriceAed":4500000,"handover":"Q2 2028","imageUrl":"https://new-projects-media.propertyfinder.com/project/9a373288-6b15-4d9a-833c-670c779cc97a/gallery/image/pRjmWB9BGNxDhsqgnW200qrtEU-NQyCfWn7MsCw-sa8=/medium.webp"},{"id":"ef708538-739f-4ab2-875a-1d82906c4e8b","slug":"fay-hills","name":"Fay Hills","developer":"Taraf Properties","area":"Masdar City, Fay Hills","city":"Abu Dhabi","lat":24.4303812312,"lng":54.6077850202,"minPriceAed":4500000,"handover":"Q2 2028","imageUrl":"https://new-projects-media.propertyfinder.com/project/ef708538-739f-4ab2-875a-1d82906c4e8b/gallery/image/mRrdxUuKkPqNDo-Xo4gtti_z3w0CPWvbzQciOrE_x08=/medium.webp"},{"id":"61f7ec42-c444-4fb4-9e33-548914b64c3b","slug":"fay-valley","name":"Fay Valley","developer":"Taraf Properties","area":"Masdar City, Fay Hills","city":"Abu Dhabi","lat":24.4303812312,"lng":54.6077850202,"minPriceAed":3140000,"handover":"Q2 2030","imageUrl":"https://new-projects-media.propertyfinder.com/project/61f7ec42-c444-4fb4-9e33-548914b64c3b/gallery/image/uvWlRwYMLPtpps3VAJTQkLsZLn3PxuK8pYPQCVxCzqY=/medium.webp"},{"id":"4f186360-54cb-433c-8b5b-ce0e9f62489d","slug":"floarea-breeze","name":"Floarea Breeze","developer":"Mashriq Elite Developments","area":"Dubai Islands, Floarea Breeze","city":"Dubai","lat":25.2906687277,"lng":55.2996690396,"minPriceAed":1890000,"handover":"Q2 2028","imageUrl":"https://new-projects-media.propertyfinder.com/project/4f186360-54cb-433c-8b5b-ce0e9f62489d/gallery/image/cucVoOjvnvPdVsEp90Ryz5pXLknKZGYXAZSL_EUos-E=/medium.webp"},{"id":"0e3f2c7f-5a28-454a-93c3-e2ad97e371a9","slug":"flora-isle","name":"Flora Isle","developer":"Flora Realty","area":"Dubai Islands, Flora Isle","city":"Dubai","lat":25.30201973852,"lng":55.3004664753,"minPriceAed":2088888,"handover":"Q1 2028","imageUrl":"https://new-projects-media.propertyfinder.com/project/0e3f2c7f-5a28-454a-93c3-e2ad97e371a9/gallery/image/rLo-2CGpSJztK_MXxH16kW0MnWXIX1b6Ei19uMZhPqQ=/medium.webp"},{"id":"2a1d8a3e-af42-45f7-b9d5-9d77dd73c448","slug":"sobha-florine-beach-residences","name":"Florine Beach Residences","developer":"Sobha Realty","area":"Umm Al Quwain Marina, Siniyah Island, Florine Beach Residences","city":"Umm Al Quwain","lat":25.61814257847,"lng":55.63696560272,"minPriceAed":1210000,"handover":"Q3 2028","imageUrl":"https://new-projects-media.propertyfinder.com/project/2a1d8a3e-af42-45f7-b9d5-9d77dd73c448/gallery/image/qPq6_g_AAat7NhdJyhkp2fHJu3P0h5b0sccKNHESp1w=/medium.webp"},{"id":"aac7babb-58b7-4ce1-a8cc-99d8f9c69304","slug":"flow-25","name":"Flow 25","developer":"GAF Property","area":"Al Reem Island","city":"Abu Dhabi","lat":24.4942437,"lng":54.4068603,"minPriceAed":1939500,"handover":"Q1 2029","imageUrl":"https://new-projects-media.propertyfinder.com/project/aac7babb-58b7-4ce1-a8cc-99d8f9c69304/gallery/image/Hbdj5HCebgGqGrAvQXpQSjXtvXvVnNIwCDbUL0vOvhQ=/medium.webp"},{"id":"aeb5e25f-277a-4cfd-a672-ae017ee40cfd","slug":"flow-residences","name":"Flow Residences","developer":"Main Realty","area":"Dubai Islands, Flow Residences","city":"Dubai","lat":25.2897591075,"lng":55.3027079153,"minPriceAed":2070000,"handover":"Q2 2027","imageUrl":"https://new-projects-media.propertyfinder.com/project/aeb5e25f-277a-4cfd-a672-ae017ee40cfd/gallery/image/IUdcuJJgDpYCIW48TkDtmdQZtOnRrvBZ-Q19OZUk_NQ=/medium.webp"},{"id":"d13de52a-9cdd-492a-a68a-f54424cd7a6d","slug":"forest","name":"Forest","developer":"Aldar Properties PJSC","area":"Dubai Land, Haven By Aldar, Verdes, Forest","city":"Dubai","lat":25.07955730096,"lng":55.37486694753,"minPriceAed":990000,"handover":"Q2 2028","imageUrl":"https://new-projects-media.propertyfinder.com/project/d13de52a-9cdd-492a-a68a-f54424cd7a6d/gallery/image/cMkwosdeES2tcCNLVpmdbNjBDffsXi_aAVTrYPxV22E=/medium.webp"},{"id":"b3bf2e63-e487-4b92-a570-a793370192eb","slug":"fortune-bay-residences","name":"Fortune Bay Residences","developer":"Topero Properties","area":"Al Marjan Island, Fortune Bay Residences","city":"Ras Al Khaimah","lat":25.6745912,"lng":55.7407121,"minPriceAed":2500000,"handover":"Q4 2026","imageUrl":"https://new-projects-media.propertyfinder.com/project/b3bf2e63-e487-4b92-a570-a793370192eb/gallery/image/J7XcVmG13JRtc8iJbY13mjCBRjkBLBZV0QptXbT4PXQ=/medium.webp"},{"id":"7230f31d-4d25-4406-8af9-038d2c3d7515","slug":"four-seasons-private-residences","name":"Four Seasons Private Residences","developer":"Al Ain Holding","area":"Al Maryah Island, Four Seasons Private Residences","city":"Abu Dhabi","lat":24.5030891,"lng":54.3874922,"minPriceAed":54200000,"handover":"Q3 2029","imageUrl":"https://new-projects-media.propertyfinder.com/project/7230f31d-4d25-4406-8af9-038d2c3d7515/gallery/image/3cqn_N5tiDu6Kn0Qls0vfy-shOdM_9iDOQLGIwlmilw=/medium.webp"},{"id":"99bc2db6-8977-4a06-81b4-3e96fbe273aa","slug":"four-seasons-private-residences-at-difc","name":"Four Seasons Private Residences at DIFC","developer":"H&H Development","area":"DIFC, Four Seasons Private Residences","city":"Dubai","lat":25.211024,"lng":55.279641,"minPriceAed":22887836,"handover":"Q1 2027","imageUrl":"https://new-projects-media.propertyfinder.com/project/99bc2db6-8977-4a06-81b4-3e96fbe273aa/gallery/image/l-yKOtHI-q8sCT_LMT-WESRxKxxZZy55G88OjRiS89I=/medium.webp"},{"id":"acfecd48-ca06-4dd7-8aaa-4a41a380f4a3","slug":"future-residence","name":"Future Residence","developer":"True Future","area":"Meydan, Future Residence","city":"Dubai","lat":25.1793682,"lng":55.3238277,"minPriceAed":1350000,"handover":"Q4 2027","imageUrl":"https://new-projects-media.propertyfinder.com/project/acfecd48-ca06-4dd7-8aaa-4a41a380f4a3/gallery/image/ULWwM4_aK5uJSIMzVOivGkA92qhyqJoOoNomYkaI-GM=/medium.webp"},{"id":"ccc48493-156e-4371-9b41-9d1f2a731399","slug":"galleria-residences","name":"Galleria Residences","developer":"Evera Real Estate","area":"Dubai South (Dubai World Central)","city":"Dubai","lat":24.88975851,"lng":55.1453805,"minPriceAed":709277,"handover":"Q4 2027","imageUrl":"https://new-projects-media.propertyfinder.com/project/ccc48493-156e-4371-9b41-9d1f2a731399/gallery/image/O4Ok8hkWRkYXXKsbo6JLhI_MNZBLpedwFPh0T3Y1N80=/medium.webp"},{"id":"fd5ad794-8c3f-4b97-afc6-4f9c368a99f3","slug":"garnet-by-siroya","name":"Garnet by Siroya","developer":"Siroya Ventures","area":"Dubai South (Dubai World Central), Garnet by Siroya","city":"Dubai","lat":24.9479695,"lng":55.2281678,"minPriceAed":900000,"handover":"Q3 2027","imageUrl":"https://new-projects-media.propertyfinder.com/project/fd5ad794-8c3f-4b97-afc6-4f9c368a99f3/gallery/image/VwCLn0d37L7W1KI-f0f-rgfm1V1jIBohcDh-9Tk3E6o=/medium.webp"},{"id":"ba3edd32-a442-4652-bd14-9a8c96af59de","slug":"gateway-porto-al-zorah","name":"Gateway Porto Al Zorah","developer":"Al Zorah Development","area":"Al Zorah","city":"Ajman","lat":25.43642482,"lng":55.49153298,"minPriceAed":896230,"handover":"Q4 2026","imageUrl":"https://new-projects-media.propertyfinder.com/project/ba3edd32-a442-4652-bd14-9a8c96af59de/gallery/image/bdUVhUlrk_vBv5UfxKfRFGCE5svzEvIzFFNn0rKROnI=/medium.webp"},{"id":"2678be8c-5792-4b89-b219-f2365f2f3b45","slug":"ghadeer-at-expo-valley-views","name":"Ghadeer at Expo Valley Views","developer":"Expo City Dubai","area":"Expo City, Expo Valley, Expo Valley Views, Ghadeer","city":"Dubai","lat":24.9626291509,"lng":55.1644431024,"minPriceAed":1594000,"handover":"Q4 2029","imageUrl":"https://new-projects-media.propertyfinder.com/project/2678be8c-5792-4b89-b219-f2365f2f3b45/gallery/image/ka0ojrpgF-FCxDXM79AuxK4r9epQX_9gcbK837BxQSU=/medium.webp"},{"id":"0c65a2b7-4ebb-46ab-84f5-482cae4af88e","slug":"gianfranco-ferre-residences","name":"Gianfranco Ferré Residences","developer":"Mira Developments","area":"Al Marjan Island, Gianfranco Ferre Residences","city":"Ras Al Khaimah","lat":25.687821816,"lng":55.731733796,"minPriceAed":1200000,"handover":"Q1 2028","imageUrl":"https://new-projects-media.propertyfinder.com/project/0c65a2b7-4ebb-46ab-84f5-482cae4af88e/gallery/image/8FIBo9b8YarRH92thFjIYj7n7-pXFEAtnCLy996Nmyk=/medium.webp"},{"id":"bcd1449c-e939-4671-ab7b-dc0634ea0fab","slug":"golden-woods-albab-views","name":"Golden Woods Albab Views","developer":"Golden Woods Real Estate","area":"Dubai South (Dubai World Central), Residential District, Golden Woods Albab Views","city":"Dubai","lat":24.9454383945,"lng":55.2241177423,"minPriceAed":497292,"handover":"Q1 2027","imageUrl":"https://new-projects-media.propertyfinder.com/project/bcd1449c-e939-4671-ab7b-dc0634ea0fab/gallery/image/elkZ86rqYY-L6NgFXwF6LN1aSR70uEc2IN2xgUASr3I=/medium.webp"},{"id":"f8aa6e42-3286-4915-aad3-2954bf4aaa85","slug":"golf-hills","name":"Golf Hills","developer":"Emaar Properties","area":"Dubai South (Dubai World Central), Emaar South, Golf Hills","city":"Dubai","lat":24.860373,"lng":55.135485,"minPriceAed":1060000,"handover":"Q3 2029","imageUrl":"https://new-projects-media.propertyfinder.com/project/f8aa6e42-3286-4915-aad3-2954bf4aaa85/gallery/image/aHo0gEIyhUmq61jUqlXQKaCDo9hRJbFfbS1X9X34GgE=/medium.webp"},{"id":"39b56968-455c-4ae3-b40b-f475c21f3d24","slug":"golf-vale","name":"Golf Vale","developer":"Emaar Properties","area":"Dubai South (Dubai World Central), Emaar South, Golf Vale","city":"Dubai","lat":24.8627389119,"lng":55.1414705035,"minPriceAed":1099888,"handover":"Q1 2030","imageUrl":"https://new-projects-media.propertyfinder.com/project/39b56968-455c-4ae3-b40b-f475c21f3d24/gallery/image/xdCh0VWMdlRKbGjFOsLWrUDNAaPDgQcGF51o7F6z4p8=/medium.webp"},{"id":"f68c4b92-d998-4bd0-b16c-47cd07377d80","slug":"green-vistas","name":"Green Vistas","developer":"Sobha Realty","area":"Bukadra, Sobha Hartland II, Green Vistas","city":"Dubai","lat":25.17215554224,"lng":55.33217112671,"minPriceAed":1700000,"handover":"Q4 2028","imageUrl":"https://new-projects-media.propertyfinder.com/project/f68c4b92-d998-4bd0-b16c-47cd07377d80/gallery/image/xoANVUr7ow2kFUsOMDY_XPjQWRHPR5xg5vhBfUAr4-8=/medium.webp"},{"id":"d0fe54c6-a4b4-4b73-b9cd-20e91e9d1c7a","slug":"green-wood-royal","name":"Green Wood Royal","developer":"LEOS International","area":"Umm Al Daman, Green Wood Royal","city":"Dubai","lat":25.0602528852,"lng":55.4177784247,"minPriceAed":3600000,"handover":"Q4 2028","imageUrl":"https://new-projects-media.propertyfinder.com/project/d0fe54c6-a4b4-4b73-b9cd-20e91e9d1c7a/gallery/image/GC_qWui4HEEIXWwxwybBsMtoG_MQu-Dgcfd4hKbyYjo=/medium.webp"},{"id":"6b99381a-d869-4325-b76d-96ab2fb3b241","slug":"greenspoint-2","name":"Greenspoint Phase 2 By Emaar","developer":"Emaar Properties","area":"Dubai South (Dubai World Central), Emaar South, Greenspoint 2","city":"Dubai","lat":24.8481170687,"lng":55.138661627,"minPriceAed":3530000,"handover":"Q1 2029","imageUrl":"https://new-projects-media.propertyfinder.com/project/6b99381a-d869-4325-b76d-96ab2fb3b241/gallery/image/WNpQkawZTlEF-TPIVdjLkCnWHuIaiyHmRrdljjxNj2Y=/medium.webp"},{"id":"fb4b65e7-0048-4264-8b2e-4c5e4f71c5e9","slug":"greenz-by-danube","name":"Greenz by Danube","developer":"Danube Properties","area":"Al Rowaiyah 1","city":"Dubai","lat":25.09168149,"lng":55.38863548,"minPriceAed":3500000,"handover":"Q4 2029","imageUrl":"https://new-projects-media.propertyfinder.com/project/fb4b65e7-0048-4264-8b2e-4c5e4f71c5e9/gallery/image/NAXOCVxVglkb0w3TAXUDZUd-QGx8duIcGDYqw4coeYo=/medium.webp"},{"id":"1783996a-48c8-4106-b86f-b37cddc2ba6e","slug":"greygate-residences","name":"Greygate Residences","developer":"ADE Properties","area":"Jumeirah Village Circle, District 11, Greygate Residences by Ade","city":"Dubai","lat":25.058711,"lng":55.212489,"minPriceAed":657225,"handover":"Q1 2028","imageUrl":"https://new-projects-media.propertyfinder.com/project/1783996a-48c8-4106-b86f-b37cddc2ba6e/gallery/image/DpgCAppFhPvxyvdo3l2mcQEzCU7rQMpwmyfpRMMOEMM=/medium.webp"},{"id":"4d64ea2c-dd60-464f-af82-679394ca914e","slug":"guzel-towers","name":"Guzel Tower By Tiger Group","developer":"Tiger Group","area":"Jumeirah Village Triangle, District 1, Guzel Towers","city":"Dubai","lat":25.03252792709,"lng":55.17276513101,"minPriceAed":794148,"handover":"Q4 2027","imageUrl":"https://new-projects-media.propertyfinder.com/project/4d64ea2c-dd60-464f-af82-679394ca914e/gallery/image/VmfcSB3EUHyAzYWYrnX1gCdxQhe4ABBp5LeYipqWQkM=/medium.webp"},{"id":"665bc38c-4709-4c90-99e0-cdea201abdbf","slug":"guzel-towers-phase-4-by-tiger","name":"Guzel Towers Phase 4 by Tiger","developer":"Tiger Group","area":"Jumeirah Village Triangle","city":"Dubai","lat":25.04686052444,"lng":55.1898372923,"minPriceAed":746288,"handover":"Q4 2027","imageUrl":"https://new-projects-media.propertyfinder.com/project/665bc38c-4709-4c90-99e0-cdea201abdbf/gallery/image/n_ELSIl1FpryZKBuc0sdTWV2oezwzg6EKoQR8B3liAI=/medium.webp"},{"id":"302ccb56-9b89-4924-a79d-5421d21b02d9","slug":"harbour-by-prestige-one","name":"Harbour by Prestige One","developer":"Prestige One Developments","area":"Dubai Islands","city":"Dubai","lat":25.31873563,"lng":55.30294552,"minPriceAed":1800000,"handover":"Q3 2027","imageUrl":"https://new-projects-media.propertyfinder.com/project/302ccb56-9b89-4924-a79d-5421d21b02d9/gallery/image/x2D__LdvlLC04YpMoH1SWTgRPzrJSHnsERQjOjPDzFU=/medium.webp"},{"id":"94b98884-b5a9-454e-91e8-7e234e5bab99","slug":"haven-phase-3-by-aldar","name":"Haven Phase 3 by Aldar","developer":"Aldar Properties PJSC","area":"Dubai Land, Haven By Aldar 3","city":"Dubai","lat":25.08088714139,"lng":55.37684900003,"minPriceAed":3000000,"handover":"Q3 2027","imageUrl":"https://new-projects-media.propertyfinder.com/project/94b98884-b5a9-454e-91e8-7e234e5bab99/gallery/image/MnOI3xhIFm-VZEufvbwiwmCU7msVJbhubUc5w9oe85Q=/medium.webp"},{"id":"b1d4bb00-ed6a-4814-b889-17ff8c7a31d0","slug":"havencia","name":"Havencia","developer":"ALA Developments","area":"Dubai Land Residence Complex, Havencia","city":"Dubai","lat":25.0923726,"lng":55.374946,"minPriceAed":650000,"handover":"Q1 2028","imageUrl":"https://new-projects-media.propertyfinder.com/project/b1d4bb00-ed6a-4814-b889-17ff8c7a31d0/gallery/image/tUaIcDgeBsRbHta_-IwKstr-zkeVamMoj2FaaRWl-dc=/medium.webp"},{"id":"5f570d5d-8a0e-4ad9-adb5-900db5531a51","slug":"hayat-phase-2-residences-by-dubai-south","name":"Hayat Residences Phase 2 by Dubai South","developer":"Dubai South","area":"Dubai South (Dubai World Central)","city":"Dubai","lat":24.88975851,"lng":55.1453805,"minPriceAed":3400000,"handover":"Q2 2028","imageUrl":"https://new-projects-media.propertyfinder.com/project/5f570d5d-8a0e-4ad9-adb5-900db5531a51/gallery/image/f22wmMDhsDW8QoYzlN2tS-G5WgzgjIvbF-rleokbZD4=/medium.webp"},{"id":"29916f84-fdf7-49aa-bdbb-7a4e2c254798","slug":"hayyan","name":"Hayyan","developer":"Alef Group","area":"Hayyan","city":"Sharjah","lat":25.28151999622,"lng":55.58534955315,"minPriceAed":1899000,"handover":"Q4 2026","imageUrl":"https://new-projects-media.propertyfinder.com/project/29916f84-fdf7-49aa-bdbb-7a4e2c254798/gallery/image/eubhSvSmdrLg-SrpN4B4HXqjJu9BPS2uaojfr8-Y6oM=/medium.webp"},{"id":"b0771499-efd0-47e1-9b93-8159e395e79b","slug":"helvetia-marine","name":"Helvetia Marine","developer":"DHG Properties","area":"Dubai Islands, Helvetia Marine","city":"Dubai","lat":25.289329,"lng":55.299741,"minPriceAed":2010000,"handover":"Q1 2028","imageUrl":"https://new-projects-media.propertyfinder.com/project/b0771499-efd0-47e1-9b93-8159e395e79b/gallery/image/1n62JxSm7z9p2Y80PdQkY4OFHczLCpQ30ToXfws0-jM=/medium.webp"},{"id":"abf869c5-1525-4f8b-a4ad-62300fa3d792","slug":"helvetia-residences","name":"Helvetia Residences By DHG Properties","developer":"DHG Properties","area":"Jumeirah Village Circle, District 14, Helvetia Residences","city":"Dubai","lat":25.04747099609,"lng":55.20594913777,"minPriceAed":1350000,"handover":"Q1 2026","imageUrl":"https://new-projects-media.propertyfinder.com/project/abf869c5-1525-4f8b-a4ad-62300fa3d792/gallery/image/n4E-iWAAbH4b8OxaJK2j1S_YPcDPi2ournwsd3nKZls=/medium.webp"},{"id":"eb8f7750-9d33-4f1e-af9b-45bde1434ab4","slug":"henge-residences","name":"Henge Residences","developer":"Nord Development","area":"Saadiyat Island, Henge Residences By NORD","city":"Abu Dhabi","lat":24.52121359424,"lng":54.43675804124,"minPriceAed":1100000,"handover":"Q1 2028","imageUrl":"https://new-projects-media.propertyfinder.com/project/eb8f7750-9d33-4f1e-af9b-45bde1434ab4/gallery/image/XQvGdJcZm0V8zv-7tOyZRbAQi8Pxou7VDIpR6e0UQ4s=/medium.webp"},{"id":"b53bcf2c-7dfe-46e8-8de2-d5285983d8f4","slug":"hillside-residences-2","name":"Hillside Residences Phase 2 By Wasl","developer":"Wasl Properties","area":"Wasl Gate, Hillside Residences 2","city":"Dubai","lat":25.02683837104,"lng":55.11095027192,"minPriceAed":3680000,"handover":"Q3 2027","imageUrl":"https://new-projects-media.propertyfinder.com/project/b53bcf2c-7dfe-46e8-8de2-d5285983d8f4/gallery/image/VcLqXDYd9UKeZ7p5qx_r6tbkYQ0cNqtDHjPz7cUADc8=/medium.webp"},{"id":"d48fa591-d922-4ba8-8399-374eae105498","slug":"hilton-residences-abu-dhabi-al-raha","name":"Hilton Residences Abu Dhabi Al Raha","developer":"Emirates Limited Investment Development","area":"Al Raha Beach, Hilton Residences","city":"Abu Dhabi","lat":24.449086,"lng":54.59713,"minPriceAed":2500000,"handover":"Q4 2028","imageUrl":"https://new-projects-media.propertyfinder.com/project/d48fa591-d922-4ba8-8399-374eae105498/gallery/image/Y1a8wsga_b1WMPSipB_ozfN1DivdcnRmbEloGUYkDx4=/medium.webp"},{"id":"981d6b93-3c1a-4dc8-878b-c7138c38925d","slug":"hilton-residences-jlt","name":"Hilton Residences JLT","developer":"Emirates Developments","area":"Jumeirah Lake Towers, JLT Cluster F, Hilton Residences","city":"Dubai","lat":25.0728116673,"lng":55.1423938919,"minPriceAed":2800000,"handover":"Q3 2027","imageUrl":"https://new-projects-media.propertyfinder.com/project/981d6b93-3c1a-4dc8-878b-c7138c38925d/gallery/image/BNa6tzJBdrpAnAb2QxIR_2rWQRZAQLzslTJzfuX22ko=/medium.webp"},{"id":"26e2c462-7e04-47d6-ac19-2588cd36e05e","slug":"house-of-well-2","name":"House of Well 2","developer":"WELL Concept","area":"Dubai Islands, House of Well","city":"Dubai","lat":25.2907338642,"lng":55.3042941609,"minPriceAed":1866824,"handover":"Q1 2027","imageUrl":"https://new-projects-media.propertyfinder.com/project/26e2c462-7e04-47d6-ac19-2588cd36e05e/gallery/image/2RYj8x05y9_NWZu7i5ri6D0WXoTrGSAwAdc_380ULa4=/medium.webp"},{"id":"f6347ca3-dca1-43bd-9246-a0cd656a753a","slug":"hudayriyat-golf-estate","name":"Hudayriyat Golf Estate","developer":"Modon Properties","area":"Al Hudayriat Island, Hudayriyat Golf Estates","city":"Abu Dhabi","lat":24.4295475,"lng":54.3474324,"minPriceAed":4250000,"handover":"Q3 2030","imageUrl":"https://new-projects-media.propertyfinder.com/project/f6347ca3-dca1-43bd-9246-a0cd656a753a/gallery/image/Z_NlrsOgCw3y4YV8IO7OsNXkuTHu_3CROg_A-X6eC9U=/medium.webp"},{"id":"a32b26bc-9c75-4e91-8583-3c7787915c9e","slug":"hyde-residences","name":"Hyde Residences","developer":"CITYVIEW Developments","area":"Dubai Hills Estate, Hyde Residences","city":"Dubai","lat":25.1091930551,"lng":55.24985475767,"minPriceAed":2017777,"handover":"Q1 2027","imageUrl":"https://new-projects-media.propertyfinder.com/project/a32b26bc-9c75-4e91-8583-3c7787915c9e/gallery/image/M_Q2fulbTBEHhp9G0M0KxQFPfxdJMZDmWSfhd_Sx7-w=/medium.webp"},{"id":"eca09356-5c65-4765-8dd6-276236739a5f","slug":"iluka","name":"Iluka","developer":"Ms Homes Development","area":"Dubai Islands, Iluka Residences","city":"Dubai","lat":25.29163567424,"lng":55.29301464558,"minPriceAed":3880704,"handover":"Q3 2026","imageUrl":"https://new-projects-media.propertyfinder.com/project/eca09356-5c65-4765-8dd6-276236739a5f/gallery/image/YfPZTGFUhy7JNRz_69cHt-pBjlLORBtm8JQivtrP3Is=/medium.webp"},{"id":"a0a7d893-4f5c-4060-b916-d67442b2b956","slug":"inara-residence","name":"Inara Residence","developer":"Imtiaz Developments","area":"Dubai South (Dubai World Central)","city":"Dubai","lat":24.88975851,"lng":55.1453805,"minPriceAed":673000,"handover":"Q1 2028","imageUrl":"https://new-projects-media.propertyfinder.com/project/a0a7d893-4f5c-4060-b916-d67442b2b956/gallery/image/30YEfRv3hyZ0nXKXdER9dS-bUhNvnqjtFyZGZyiLPUw=/medium.webp"},{"id":"90cde306-dc88-4441-8ff5-35bb359b6de2","slug":"ir1dian-park","name":"IR1DIAN Park","developer":"Object 1","area":"Jumeirah Village Circle, District 13, IR1DIAN Park","city":"Dubai","lat":25.05002312834,"lng":55.21261685935,"minPriceAed":772000,"handover":"Q2 2027","imageUrl":"https://new-projects-media.propertyfinder.com/project/90cde306-dc88-4441-8ff5-35bb359b6de2/gallery/image/LJLM8vE9w5kfvv43-PYTBRTtnB_geJ0vj0xbk5CqK18=/medium.webp"},{"id":"079fece3-bc82-47f3-8b70-df611bcb6740","slug":"ir1dian-park-phase-2-by-object-1","name":"IR1DIAN Park Phase 2 By object 1","developer":"Object 1","area":"Jumeirah Village Circle, District 13, IR1DIAN Park","city":"Dubai","lat":25.05002312834,"lng":55.21261685935,"minPriceAed":827530,"handover":"Q2 2027","imageUrl":"https://new-projects-media.propertyfinder.com/project/079fece3-bc82-47f3-8b70-df611bcb6740/gallery/image/9KFLRTft4pkx9XfPA9HXdlD2EXnk6-vqa0LzHNTCK5w=/medium.webp"},{"id":"35130438-e851-41df-9d66-307e35f956fb","slug":"isla-private-residences","name":"Isla Private Residences","developer":"Chaimaa Holding Limited","area":"Dubai Islands","city":"Dubai","lat":25.31873563,"lng":55.30294552,"minPriceAed":2200000,"handover":"Q1 2028","imageUrl":"https://new-projects-media.propertyfinder.com/project/35130438-e851-41df-9d66-307e35f956fb/gallery/image/YKPABMWj9kY2FzM2Q2tgAvPitlSLeZpdkBId2eZfS_4=/medium.webp"},{"id":"a71b3ea4-7ba4-4ebb-9c48-f7626a50890c","slug":"island-heights","name":"Island Heights","developer":"Range Developments","area":"Al Marjan Island, Island Heights","city":"Ras Al Khaimah","lat":25.68946909003,"lng":55.73439304949,"minPriceAed":1175706,"handover":"Q1 2028","imageUrl":"https://new-projects-media.propertyfinder.com/project/a71b3ea4-7ba4-4ebb-9c48-f7626a50890c/gallery/image/0sDZnWzSm492k3deXj1jhZ36Kn1syyND2ZNSOWLeh6Q=/medium.webp"},{"id":"e37f76d3-e513-4509-9b20-3fc91d566467","slug":"jacob-and-co-residences","name":"Jacob & Co Residences","developer":"Mantra Developments","area":"Al Marjan Island, Jacob & Co Residences","city":"Ras Al Khaimah","lat":25.6885490186,"lng":55.7351699302,"minPriceAed":1022888,"handover":"Q2 2028","imageUrl":"https://new-projects-media.propertyfinder.com/project/e37f76d3-e513-4509-9b20-3fc91d566467/gallery/image/enyAvXGi4sThY8AJUWGK1VXL0nJ_2ck2k95uiemhWyQ=/medium.webp"},{"id":"046aeba0-6fa7-4ec2-8f83-0e456c7830b0","slug":"jacob-and-co-beachfront-living","name":"Jacob & Co. Beachfront Living","developer":"Ohana Real Estate Development","area":"Ghantoot, AlJurf, Jacob & Co. Beachfront Living","city":"Abu Dhabi","lat":24.38907342856,"lng":54.62284787302,"minPriceAed":1500000,"handover":"Q2 2028","imageUrl":"https://new-projects-media.propertyfinder.com/project/046aeba0-6fa7-4ec2-8f83-0e456c7830b0/gallery/image/ZB30YKQOIi2ncrEPO_dZd42DZKqg7vy5PK01-EAgMLs=/medium.webp"},{"id":"abd1574b-bca2-4bfe-aea9-49ef7b53278e","slug":"jad-288","name":"JAD288","developer":"JAD Global","area":"Al Satwa, Jumeirah Garden City, Jad 288","city":"Dubai","lat":25.2277254989,"lng":55.2793536893,"minPriceAed":850288,"handover":"Q4 2027","imageUrl":"https://new-projects-media.propertyfinder.com/project/abd1574b-bca2-4bfe-aea9-49ef7b53278e/gallery/image/PK2lJA-N-FXe2wIm4649tv7hAQRYur8x7Tt_zulgjh8=/medium.webp"},{"id":"c6b01e43-e0c0-49f6-9400-ac2f83dbdb07","slug":"jawaher-residences-2","name":"Jawaher Residences Phase 2 By Eagle Hills","developer":"Eagle Hills","area":"Al Khan, Maryam Island, Jawaher Residences","city":"Sharjah","lat":25.325483,"lng":55.361885,"minPriceAed":727890,"handover":"Q1 2025","imageUrl":"https://new-projects-media.propertyfinder.com/project/c6b01e43-e0c0-49f6-9400-ac2f83dbdb07/gallery/image/ePVvqDAvdzaWZ58MXZ4RiCl1pPmRJTEr5B9yyPpazow=/medium.webp"},{"id":"e194903f-43a4-4ecb-a67b-b7a973fd8731","slug":"joud-residence","name":"Joud Residence","developer":"One Development","area":"Al Reem Island","city":"Abu Dhabi","lat":24.4942437,"lng":54.4068603,"minPriceAed":1460000,"handover":"Q2 2029","imageUrl":"https://new-projects-media.propertyfinder.com/project/e194903f-43a4-4ecb-a67b-b7a973fd8731/gallery/image/0BgZpZN9Kx90Bw80OLP_Ps6A1AYgCHHR_3H4kF4CjFg=/medium.webp"},{"id":"d97910cc-3e43-418b-b643-88bb4f835d46","slug":"juman-2","name":"Juman 2","developer":"ICT Real Estate Development","area":"Al Raha Beach, Juman 2","city":"Abu Dhabi","lat":24.442953,"lng":54.569582,"minPriceAed":1100000,"handover":"Q2 2029","imageUrl":"https://new-projects-media.propertyfinder.com/project/d97910cc-3e43-418b-b643-88bb4f835d46/gallery/image/fbeSo8PRgLT7TmATlIexNevKWFUwNW_XSECGLmFnSCM=/medium.webp"},{"id":"f68772b6-f932-4652-8ab6-28e889242837","slug":"juman-3","name":"Juman 3","developer":"ICT Real Estate Development","area":"Al Raha Beach, Juman 3","city":"Abu Dhabi","lat":24.522319,"lng":54.625947,"minPriceAed":1100000,"handover":"Q4 2029","imageUrl":"https://new-projects-media.propertyfinder.com/project/f68772b6-f932-4652-8ab6-28e889242837/gallery/image/3z-kYAGQbIsan_PTypcGxsocdqhpdI9EWGjaw1AqCgw=/medium.webp"},{"id":"95b6436f-b882-4d1b-a421-2fe0a69ee887","slug":"jumeirah-residences","name":"Jumeirah Residences","developer":"Emirates Developments","area":"Al Maryah Island","city":"Abu Dhabi","lat":24.4984378,"lng":54.3890855,"minPriceAed":4700000,"handover":"Q4 2030","imageUrl":"https://new-projects-media.propertyfinder.com/project/95b6436f-b882-4d1b-a421-2fe0a69ee887/gallery/image/Afd3NKPo1MORyDXnl985YfPOJi5dzMv4PPeDLP3Fnog=/medium.webp"},{"id":"4bfc7832-96be-472a-9762-8ca7dcb06d15","slug":"jw-marriott-residences","name":"JW Marriott Residences","developer":"WOW Resorts","area":"Al Marjan Island, JW Marriott Residences","city":"Ras Al Khaimah","lat":25.68082309151,"lng":55.75106620789,"minPriceAed":3116827,"handover":"Q4 2027","imageUrl":"https://new-projects-media.propertyfinder.com/project/4bfc7832-96be-472a-9762-8ca7dcb06d15/gallery/image/B9g0AIAEac-7YbghDpO6DCV-32S6LTvbt2CVda-W6TQ=/medium.webp"},{"id":"cf1502fd-65ce-4637-b0d5-d91a31e706ee","slug":"karl-lagerfeld-beach-residences","name":"Karl Lagerfeld Beach Residences","developer":"Aark Developers","area":"Al Marjan Island, Karl Lagerfeld Beach Residences by Aark","city":"Ras Al Khaimah","lat":25.6754308825,"lng":55.7396903284,"minPriceAed":2800000,"handover":"Q2 2028","imageUrl":"https://new-projects-media.propertyfinder.com/project/cf1502fd-65ce-4637-b0d5-d91a31e706ee/gallery/image/ZOqTpMtj19iS10RVnoIAQOyftspXkYBV8QnNDKjE3Po=/medium.webp"},{"id":"ab71c3fa-5e96-4bc9-922f-d6122857c6a8","slug":"khalid-bin-sultan-city","name":"Khalid Bin Sultan City","developer":"BEEAH Group","area":"Al Rowdat Suburb, Khalid Bin Sultan City","city":"Sharjah","lat":25.2851932,"lng":55.6535882,"minPriceAed":2100000,"handover":"Q3 2029","imageUrl":"https://new-projects-media.propertyfinder.com/project/ab71c3fa-5e96-4bc9-922f-d6122857c6a8/gallery/image/XN7aQ9x3jqjHn1b6Jh7OkQev6YVnRZ5U8aWsE81pMss=/medium.webp"},{"id":"26cd6210-cafb-4707-9743-8ceedb2e64c6","slug":"knightsbridge","name":"Knightsbridge","developer":"LEOS International","area":"Mohammed Bin Rashid City, District 11, Knightsbridge","city":"Dubai","lat":25.13081940851,"lng":55.35090009325,"minPriceAed":7900000,"handover":"Q4 2027","imageUrl":"https://new-projects-media.propertyfinder.com/project/26cd6210-cafb-4707-9743-8ceedb2e64c6/gallery/image/HWDAuCQaQdWmJ22bPU4Y2atdcq_IDUOmsCzI8MSzdIA=/medium.webp"},{"id":"aa5b0d68-32cd-4e9a-8f9c-93b8788778eb","slug":"knightsbridge-2","name":"Knightsbridge Phase 2 By Leos","developer":"LEOS International","area":"Mohammed Bin Rashid City, District 11, Knightsbridge 2","city":"Dubai","lat":25.13038110536,"lng":55.35065445767,"minPriceAed":13800000,"handover":"Q4 2027","imageUrl":"https://new-projects-media.propertyfinder.com/project/aa5b0d68-32cd-4e9a-8f9c-93b8788778eb/gallery/image/kwjr0QIbzVtSdLRW8kQnfBFDIh3jChMbNsgGMvS9DfU=/medium.webp"},{"id":"15096034-db98-49dc-bf04-0bfb152d7f65","slug":"la-mazzoni","name":"La Mazzoni","developer":"The Luxe Developers","area":"Al Marjan Island, La Mazzoni","city":"Ras Al Khaimah","lat":25.69152489861,"lng":55.73888485867,"minPriceAed":1994675,"handover":"Q4 2028","imageUrl":"https://new-projects-media.propertyfinder.com/project/15096034-db98-49dc-bf04-0bfb152d7f65/gallery/image/JGCzDkrbip8Wibh_cdYc_9veii0S0KafxIMQD34hN8A=/medium.webp"},{"id":"36b46cce-7efd-4eca-92d6-5e11c8c63af8","slug":"la-vera-creek","name":"La Vera Creek","developer":"Ahmadyar Developments","area":"Nadd Al Hammar","city":"Dubai","lat":25.19997,"lng":55.38483,"minPriceAed":665000,"handover":"Q1 2030","imageUrl":"https://new-projects-media.propertyfinder.com/project/36b46cce-7efd-4eca-92d6-5e11c8c63af8/gallery/image/08RfVu3Q2yzPIyEv2Y6fhO94MP1lTVF9tdv8LXtpEWs=/medium.webp"},{"id":"a121d477-eb99-4560-9f6f-7d47a8537065","slug":"lia-residences","name":"Lia Residences","developer":"Avenew Properties","area":"Dubai Islands","city":"Dubai","lat":25.31873563,"lng":55.30294552,"minPriceAed":2200000,"handover":"Q1 2028","imageUrl":"https://new-projects-media.propertyfinder.com/project/a121d477-eb99-4560-9f6f-7d47a8537065/gallery/image/rc7U4gzYf5l9ExHgsnFNSh3vpLGu84Kt1YJLGnlJrpU=/medium.webp"},{"id":"db8e847b-cc0c-4f2d-a981-593df806b2db","slug":"linar-by-alef","name":"Linar by Alef","developer":"Alef Group","area":"Al Mamzar - Sharjah, Linar by Alef","city":"Sharjah","lat":25.3062818,"lng":55.3595041,"minPriceAed":860000,"handover":"Q4 2030","imageUrl":"https://new-projects-media.propertyfinder.com/project/db8e847b-cc0c-4f2d-a981-593df806b2db/gallery/image/kbP1yNXuC3QJJ4azQvBquoomh_xXTSUVNpj451hdXzc=/medium.webp"},