{"scrapedAt":"2026-07-07T13:29:17.828Z","projects":[{"id":"fd3fa686-97cf-40bf-acd7-9ad9b6875de7","slug":"105-residences","name":"105 Residences","developer":"Kamdar Developments","area":"Jumeirah Village Circle, District 13, 105 Residences","city":"Dubai","lat":25.04981783928,"lng":55.20901801946,"minPriceAed":1275888,"handover":"Q2 2027","imageUrl":"/cdn/projects/105-residences/gallery/000.webp"},{"id":"61a78e63-ebee-4648-aa25-632f5b88f308","slug":"113-residences","name":"113 Residences","developer":"Iman Developers","area":"Al Sufouh","city":"Dubai","lat":25.11894,"lng":55.18355,"minPriceAed":1800000,"handover":"Q2 2029","imageUrl":"/cdn/projects/113-residences/gallery/000.webp"},{"id":"5ac4584e-dead-4d7b-b9b6-4e2671fda73f","slug":"1wood-residence-phase-2-by-object-1","name":"1WOOD Residence Phase 2 By Object 1","developer":"Object 1","area":"Jumeirah Village Circle, District 14, 1WOOD Residence","city":"Dubai","lat":25.04867090812,"lng":55.20570879893,"minPriceAed":788117,"handover":"Q4 2027","imageUrl":"/cdn/projects/1wood-residence-phase-2-by-object-1/gallery/000.webp"},{"id":"0a9b9394-bc95-4f30-a15a-0aefc97c31eb","slug":"311-boulevard","name":"311 Boulevard","developer":"Bam Eskan Real Estate","area":"Jumeirah Village Circle, District 13, 311 Boulevard","city":"Dubai","lat":25.05211517676,"lng":55.21293209325,"minPriceAed":750000,"handover":"Q4 2027","imageUrl":"/cdn/projects/311-boulevard/gallery/000.webp"},{"id":"8047f33a-ab77-4fce-9e0c-8a807f34a149","slug":"ab-cleo","name":"AB Cleo","developer":"AB Developers","area":"Jebel Ali","city":"Dubai","lat":25.034304,"lng":55.115443,"minPriceAed":708000,"handover":"Q1 2027","imageUrl":"/cdn/projects/ab-cleo/gallery/000.webp"},{"id":"95ca1d31-33be-4dc8-8537-df1956db0f43","slug":"aelin","name":"Aelin","developer":"Zoya Developments","area":"Dubai Land Residence Complex","city":"Dubai","lat":25.09131078,"lng":55.37827688,"minPriceAed":750000,"handover":"Q3 2028","imageUrl":"/cdn/projects/aelin/gallery/000.webp"},{"id":"6984715a-248d-4e6a-865c-1070e492eb96","slug":"al-aamra-tower","name":"Al Aamra Tower 1","developer":"GJ Real Estate","area":"Al Amerah, Al Aamra Tower","city":"Ajman","lat":25.3852017,"lng":55.577613,"minPriceAed":564000,"handover":"Q4 2027","imageUrl":"/cdn/projects/al-aamra-tower/gallery/000.webp"},{"id":"b119ea64-9d3a-402b-ad2a-985500a7ad9f","slug":"al-ghadeer-gardens","name":"Al Ghadeer Gardens","developer":"Aldar Properties PJSC","area":"Al Ghadeer","city":"Abu Dhabi","lat":24.8426667,"lng":55.0275697,"minPriceAed":1700000,"handover":"Q4 2029","imageUrl":"/cdn/projects/al-ghadeer-gardens/gallery/000.webp"},{"id":"27dfd4b9-30e0-4b72-b5a2-26e77d9b42c8","slug":"al-hamra-greens","name":"Al Hamra Greens","developer":"Al Hamra Real Estate Management Services","area":"Al Hamra Village, Al Hamra Greens","city":"Ras Al Khaimah","lat":25.691833,"lng":55.791253,"minPriceAed":1269000,"handover":"Q1 2028","imageUrl":"/cdn/projects/al-hamra-greens/gallery/000.webp"},{"id":"3af584ed-cffa-4ebe-9a52-06d6b7dcbbc1","slug":"al-hamra-waterfront","name":"Al Hamra Waterfront","developer":"Al Hamra Real Estate Management Services","area":"Al Hamra Village, Al Hamra Waterfront","city":"Ras Al Khaimah","lat":25.696217,"lng":55.780274,"minPriceAed":1050000,"handover":"Q1 2027","imageUrl":"/cdn/projects/al-hamra-waterfront/gallery/000.webp"},{"id":"190b78ca-94cc-47db-adf1-cf33331fc937","slug":"al-haseen-residence-6","name":"Al Haseen Residence 6","developer":"Dugasta","area":"Dubai Industrial City, Saih Shuaib 2, Al Haseen Residences, Al Haseen Residences 1","city":"Dubai","lat":24.876184,"lng":55.049577,"minPriceAed":736256,"handover":"Q4 2027","imageUrl":"/cdn/projects/al-haseen-residence-6/gallery/000.webp"},{"id":"3c81e798-1b5b-44d7-b101-df6dae07dbc3","slug":"al-haseen-residences-5","name":"Al Haseen Residences Phase 5","developer":"Dugasta","area":"Dubai Industrial City, Saih Shuaib 2, Al Haseen Residences, Al Haseen Residences 1","city":"Dubai","lat":24.876184,"lng":55.049577,"minPriceAed":594000,"handover":"Q4 2026","imageUrl":"/cdn/projects/al-haseen-residences-5/gallery/000.webp"},{"id":"c85481e8-a636-4f8a-9ff2-ea9aa79abe5b","slug":"al-mamsha-hamsa","name":"Al Mamsha Hamsa","developer":"Alef Group","area":"Muwaileh, Al Mamsha, Hamsa","city":"Sharjah","lat":25.307932,"lng":55.467621,"minPriceAed":919000,"handover":"Q1 2029","imageUrl":"/cdn/projects/al-mamsha-hamsa/gallery/000.webp"},{"id":"7a5bf777-438d-436b-8367-c4b1e9db3bbd","slug":"al-mamsha-hamsa-phase-2-by-alef-group","name":"Al Mamsha Hamsa Phase 2 By Alef Group","developer":"Alef Group","area":"Muwaileh, Al Mamsha, Hamsa","city":"Sharjah","lat":25.307932,"lng":55.467621,"minPriceAed":794000,"handover":"Q2 2029","imageUrl":"/cdn/projects/al-mamsha-hamsa-phase-2-by-alef-group/gallery/000.webp"},{"id":"01fbb93f-1284-4a62-951e-3b7516934627","slug":"al-walid-tower","name":"Al Walid Tower","developer":"Tiger  Properties","area":"Al Khan, Al Walid Tower","city":"Sharjah","lat":25.31238666707,"lng":55.37871867799,"minPriceAed":630000,"handover":"Q1 2028","imageUrl":"/cdn/projects/al-walid-tower/gallery/000.webp"},{"id":"bc7d882f-78d6-4839-b2ea-75e50827496a","slug":"alta","name":"Alta","developer":"Meteora Developers","area":"Jumeirah Village Circle, District 11, Alta","city":"Dubai","lat":25.06019657451,"lng":55.20974310132,"minPriceAed":692000,"handover":"Q3 2026","imageUrl":"/cdn/projects/alta/gallery/000.webp"},{"id":"c8f5c6df-02b7-40e1-9b20-df2641ad21b0","slug":"altiera-heights","name":"Altiera Heights","developer":"Ellington","area":"Jumeirah Islands","city":"Dubai","lat":25.05520086333,"lng":55.15875590445,"minPriceAed":2000000,"handover":"Q4 2028","imageUrl":"/cdn/projects/altiera-heights/gallery/000.webp"},{"id":"3a8baf3b-c062-4d5f-bd06-a588e1c76500","slug":"damac-altitude-tower","name":"Altitude","developer":"Damac Properties","area":"Business Bay, Damac Altitude Tower","city":"Dubai","lat":25.18195528847,"lng":55.2806153764,"minPriceAed":3334000,"handover":"Q1 2028","imageUrl":"/cdn/projects/damac-altitude-tower/hero.webp"},{"id":"b226bf9f-5ab3-4788-ac13-7f50d037d8b7","slug":"altura-2","name":"Altura Phase 2","developer":"BT Holdings","area":"Dubai South (Dubai World Central), Waada by Bahria Town, Altura 2","city":"Dubai","lat":24.831066,"lng":55.132636,"minPriceAed":899000,"handover":"Q1 2029","imageUrl":"/cdn/projects/altura-2/gallery/000.webp"},{"id":"309e9eb1-147a-412e-b6e6-d42d3132d696","slug":"anantara-mina","name":"Anantara Mina","developer":"RAK Properties","area":"Mina Al Arab, Anantara Mina","city":"Ras Al Khaimah","lat":25.7214316623,"lng":55.8509621711,"minPriceAed":2200000,"handover":"Q2 2028","imageUrl":"/cdn/projects/anantara-mina/gallery/000.webp"},{"id":"eef8fa81-55f2-4be1-b6e1-16369d4774ea","slug":"aquacrest","name":"AquaCrest","developer":"Sobha Realty","area":"Umm Al Quwain Marina","city":"Umm Al Quwain","lat":25.52648733,"lng":55.59750438,"minPriceAed":1170000,"handover":"Q2 2029","imageUrl":"/cdn/projects/aquacrest/gallery/000.webp"},{"id":"8e5667f9-f48f-4d7c-a6df-f90d143be08a","slug":"aquamarine-beach-residences","name":"Aquamarine Beach Residences","developer":"Sobha Realty","area":"Umm Al Quwain Marina, Siniyah Island, Aquamarine Beach Residences","city":"Umm Al Quwain","lat":25.60786055582,"lng":55.61987278183,"minPriceAed":2051806,"handover":"Q2 2028","imageUrl":"/cdn/projects/aquamarine-beach-residences/gallery/000.webp"},{"id":"7355575a-0d61-4afb-b795-7acb989c9255","slug":"arancia-yards","name":"Arancia Yards","developer":"Beyond","area":"City of Arabia, Arancia Yards By Beyond","city":"Dubai","lat":25.0872153,"lng":55.3251906,"minPriceAed":1100000,"handover":"Q4 2028","imageUrl":"/cdn/projects/arancia-yards/gallery/000.webp"},{"id":"4513cea8-6aae-4920-94d6-63936be25ea1","slug":"arthouse-hills","name":"Art House Hills By Adaan And Tuscany","developer":"Adaan and Tuscany","area":"Arjan, Art House Hills by Adaan and Tuscany","city":"Dubai","lat":25.064807,"lng":55.246007,"minPriceAed":886888,"handover":"Q4 2028","imageUrl":"/cdn/projects/arthouse-hills/hero.webp"},{"id":"3e945687-4938-4ace-afdc-492a1e7797ab","slug":"arthouse-residences","name":"Arthouse Residences","developer":"Cledor","area":"Al Marjan Island, Arthouse Residences","city":"Ras Al Khaimah","lat":25.687176,"lng":55.736251,"minPriceAed":1590750,"handover":"Q4 2027","imageUrl":"/cdn/projects/arthouse-residences/gallery/000.webp"},{"id":"74b9fbee-85b9-433d-9953-2986159cf793","slug":"arthouse-residences","name":"Arthouse Residences","developer":"Aviaan Real Estate Development","area":"Al Marjan Island, Arthouse Residences","city":"Ras Al Khaimah","lat":25.687176,"lng":55.736251,"minPriceAed":1080000,"handover":"Q4 2027","imageUrl":"https://new-projects-media.propertyfinder.com/project/74b9fbee-85b9-433d-9953-2986159cf793/gallery/image/EWNLt1WGR1iUtxVOCn03mWlyYC8fYiDaF7QyrPYJ88Q=/medium.webp"},{"id":"48568636-a21e-4c63-8f28-91176398793e","slug":"aspin-grove","name":"Aspin Grove","developer":"AYS Property Development","area":"Jumeirah Village Circle","city":"Dubai","lat":25.05638764826,"lng":55.20812137772,"minPriceAed":514780,"handover":"Q3 2028","imageUrl":"/cdn/projects/aspin-grove/gallery/000.webp"},{"id":"4e280234-3e42-41ec-a9bc-417518d4476e","slug":"astra-south","name":"Astra Residences","developer":"Dugasta","area":"Dubai South (Dubai World Central), The Pulse, Astra South","city":"Dubai","lat":24.9448093978,"lng":55.2246788132,"minPriceAed":1935842,"handover":"Q3 2027","imageUrl":"/cdn/projects/astra-south/gallery/000.webp"},{"id":"f8726940-b6b9-4988-8a67-2accac1db98d","slug":"aurea","name":"Aurea","developer":"Emaar Properties","area":"Mina Rashid, Aurea","city":"Dubai","lat":25.275315,"lng":55.289468,"minPriceAed":2310888,"handover":"Q2 2030","imageUrl":"/cdn/projects/aurea/gallery/000.webp"},{"id":"b14efa3b-9c9f-4d9d-97de-7d6516978fe8","slug":"avant-garde-residences-phase-2-by-skyline-builders","name":"Avant Garde Residences Phase 2 by Skyline Builders","developer":"Skyline Builders","area":"Jumeirah Village Circle, District 12, Avant Garde Residences II","city":"Dubai","lat":25.0567820062,"lng":55.2105222576,"minPriceAed":732270,"handover":"Q2 2028","imageUrl":"/cdn/projects/avant-garde-residences-phase-2-by-skyline-builders/gallery/000.webp"},{"id":"8438aed2-ffd4-494a-95da-d0a91f89d106","slug":"avant-garde-residences-ii","name":"Avant Garde-II Residences","developer":"Skyline Builders","area":"Jumeirah Village Circle, District 12, Avant Garde Residences II","city":"Dubai","lat":25.0567820062,"lng":55.2105222576,"minPriceAed":680000,"handover":"Q3 2029","imageUrl":"/cdn/projects/avant-garde-residences-ii/hero.webp"},{"id":"4b93ef5b-25a3-448c-b6a7-63e36301166e","slug":"avarra-by-palace","name":"Avarra by Palace","developer":"Emaar Properties","area":"Business Bay, Avarra by Palace","city":"Dubai","lat":25.1897422987,"lng":55.2612988476,"minPriceAed":3157888,"handover":"Q2 2031","imageUrl":"/cdn/projects/avarra-by-palace/gallery/000.webp"},{"id":"cbbc0362-6be0-469a-91f0-7ff7f93a40cb","slug":"avenew-888","name":"Avenew 888","developer":"Avenew Properties","area":"Dubai South (Dubai World Central), Residential District, Avenew 888","city":"Dubai","lat":24.944027,"lng":55.216394,"minPriceAed":1601000,"handover":"Q1 2028","imageUrl":"/cdn/projects/avenew-888/gallery/000.webp"},{"id":"6929eb1a-ce6a-4a53-bcd2-abfab224b125","slug":"avida-residences","name":"Avida Residences","developer":"Serene Marina Real Estate Developments","area":"Dubai Islands, Avida Residences","city":"Dubai","lat":25.2992494228,"lng":55.3142723749,"minPriceAed":1790000,"handover":"Q4 2027","imageUrl":"/cdn/projects/avida-residences/gallery/000.webp"},{"id":"4b884824-97e4-473d-bc6f-81ff6cac6523","slug":"avior-by-acube","name":"Avior By Acube","developer":"Acube Developers","area":"Sheikh Zayed Road, Avior By Acube","city":"Dubai","lat":25.1955486783,"lng":55.26139847302,"minPriceAed":3132846,"handover":"Q4 2026","imageUrl":"/cdn/projects/avior-by-acube/gallery/000.webp"},{"id":"73070b03-2554-46d4-baa0-13662033790d","slug":"aya-beachfront-residences","name":"Aya Beachfront Residences","developer":"Deyaar Development","area":"Al Raudah, Aya Beachfront Residences","city":"Umm Al Quwain","lat":25.58011161142,"lng":55.56432967143,"minPriceAed":1095000,"handover":"Q4 2027","imageUrl":"/cdn/projects/aya-beachfront-residences/gallery/000.webp"},{"id":"73da01e7-0e75-41e5-a768-c9fd1f29b8a3","slug":"azha-millennium-residences","name":"Azha Millennium Residences","developer":"Emirates properties","area":"Jumeirah Village Triangle, District 4, Azha Millennium Residences","city":"Dubai","lat":25.04236,"lng":55.189938,"minPriceAed":650000,"handover":"Q4 2027","imageUrl":"/cdn/projects/azha-millennium-residences/gallery/000.webp"},{"id":"de56fafe-9f84-4d22-b0aa-3aead5cfaf5e","slug":"azizi-lina","name":"Azizi Lina","developer":"Azizi Developments","area":"Downtown Jebel Ali, Azizi Lina","city":"Dubai","lat":24.970879,"lng":55.089278,"minPriceAed":601000,"handover":"Q3 2028","imageUrl":"/cdn/projects/azizi-lina/gallery/000.webp"},{"id":"408c089f-82bc-499e-8a14-2d087b26dd42","slug":"azizi-milan","name":"Azizi Milan","developer":"Azizi Developments","area":"City of Arabia, Azizi Milan","city":"Dubai","lat":25.088381,"lng":55.325545,"minPriceAed":560000,"handover":"Q2 2028","imageUrl":"/cdn/projects/azizi-milan/hero.webp"},{"id":"1f0b2219-ad92-4699-b305-ef84f8c97e0e","slug":"azizi-sakandar","name":"Azizi Sikander","developer":"Azizi Developments","area":"Al Furjan, Azizi Sakandar","city":"Dubai","lat":25.0346158932,"lng":55.1447689211,"minPriceAed":550000,"handover":"Q2 2027","imageUrl":"/cdn/projects/azizi-sakandar/hero.webp"},{"id":"e6b819fc-e795-4d47-8f9c-f369a15e8321","slug":"azizi-venice-15","name":"Azizi Venice 15","developer":"Azizi Developments","area":"Dubai South (Dubai World Central), Azizi Venice, Azizi Venice 15","city":"Dubai","lat":24.8381752936,"lng":55.135372254,"minPriceAed":619000,"handover":"Q2 2027","imageUrl":"/cdn/projects/azizi-venice-15/gallery/000.webp"},{"id":"a61f8e65-e61f-437b-9e92-daebffb851cb","slug":"azra-residence","name":"Azra Residence","developer":"Enaam Properties","area":"Dubai Land Residence Complex, Azra Residence","city":"Dubai","lat":25.0902317,"lng":55.3834874,"minPriceAed":970000,"handover":"Q2 2027","imageUrl":"/cdn/projects/azra-residence/gallery/000.webp"},{"id":"fc482f4c-43a7-4fea-ab2a-15d8240c6945","slug":"azure-by-lapis","name":"Azure by Lapis","developer":"Lapis Properties","area":"RAK Central, Azure By Lapis","city":"Ras Al Khaimah","lat":25.6899430487,"lng":55.7993100064,"minPriceAed":790000,"handover":"Q4 2028","imageUrl":"/cdn/projects/azure-by-lapis/gallery/000.webp"},{"id":"ccfff306-b643-4a54-ba3e-c848e4a789c3","slug":"bab-al-qasr-garden-residences-65","name":"Bab Al Qasr Garden Residences 65","developer":"Burtville","area":"Masdar City, Bab Al Qasr Garden Residence 66","city":"Abu Dhabi","lat":24.430949,"lng":54.615037,"minPriceAed":2000000,"handover":"Q1 2030","imageUrl":"/cdn/projects/bab-al-qasr-garden-residences-65/hero.webp"},{"id":"d4770b56-6bd0-488e-aa82-ea6c21676b78","slug":"bab-al-qasr-sea-view-51","name":"Bab Al Qasr Sea View 51","developer":"Burtville","area":"Al Raha Beach, Al Seef, Bab Al Qasr Sea View Residence 51","city":"Abu Dhabi","lat":24.4461786823,"lng":54.5869244819,"minPriceAed":4500000,"handover":"Q4 2029","imageUrl":"/cdn/projects/bab-al-qasr-sea-view-51/gallery/000.webp"},{"id":"5af6bc9f-8e9a-4522-a0bc-d141c6ca9902","slug":"bahamas","name":"Bahamas","developer":"Damac Properties","area":"Dubai Land, Damac Islands 2, Bahamas 1","city":"Dubai","lat":25.0263378295,"lng":55.3086703111,"minPriceAed":3913000,"handover":"Q2 2030","imageUrl":"/cdn/projects/bahamas/gallery/000.webp"},{"id":"341d88af-1a9c-4f78-904f-0be8adf9adaa","slug":"bahamas-phase-2","name":"Bahamas Phase 2","developer":"Damac Properties","area":"Dubai Land, Damac Islands 2, Bahamas 2","city":"Dubai","lat":25.0238645925,"lng":55.3192365343,"minPriceAed":2750000,"handover":"Q2 2030","imageUrl":"/cdn/projects/bahamas-phase-2/gallery/000.webp"},{"id":"1c0bb8ef-f125-4432-9303-660ed284c05a","slug":"bahria-town-dubai","name":"Bahria Town Dubai","developer":"BT Holdings","area":"Dubai South (Dubai World Central)","city":"Dubai","lat":24.88975851,"lng":55.1453805,"minPriceAed":550000,"handover":"Q4 2027","imageUrl":"/cdn/projects/bahria-town-dubai/gallery/000.webp"},{"id":"16738dca-f490-4e04-936e-2b3dc59d64ad","slug":"baia-by-reportage","name":"Baia by Reportage","developer":"Reportage Real Estate","area":"Al Raha Beach","city":"Abu Dhabi","lat":24.5223193,"lng":54.6259474,"minPriceAed":3850000,"handover":"Q2 2029","imageUrl":"/cdn/projects/baia-by-reportage/gallery/000.webp"},{"id":"c442fda7-c05d-4a9b-8f62-b5d72e30357a","slug":"barbados","name":"Barbados","developer":"Damac Properties","area":"Dubai Land, Damac Islands 2, Barbados","city":"Dubai","lat":25.029144,"lng":55.319666,"minPriceAed":4120000,"handover":"Q2 2030","imageUrl":"/cdn/projects/barbados/gallery/000.webp"},{"id":"c0118dcf-304e-418b-8b08-191587724386","slug":"bashayer-residences","name":"Bashayer Residences","developer":"Modon Properties","area":"Al Hudayriat Island, Bashayer Residences 1","city":"Abu Dhabi","lat":24.4083405595,"lng":54.4032788654,"minPriceAed":2350000,"handover":"Q1 2030","imageUrl":"/cdn/projects/bashayer-residences/hero.webp"},{"id":"aca4cfc4-aebc-454d-8441-e00e44fbce83","slug":"bashayer-villas","name":"Bashayer Villas","developer":"Modon Properties","area":"Al Hudayriat Island, Bashayer Villas","city":"Abu Dhabi","lat":24.4151126082,"lng":54.3823674423,"minPriceAed":6000000,"handover":"Q3 2028","imageUrl":"/cdn/projects/bashayer-villas/gallery/000.webp"},{"id":"4a2a81b1-c09e-4c3e-9fe6-685a8f36e146","slug":"bay-grove-residences-phase-4-by-nakheel","name":"Bay Grove Residences Phase 4 By Nakheel","developer":"Nakheel","area":"Dubai Islands, Bay Grove Residences","city":"Dubai","lat":25.30529220268,"lng":55.31979691539,"minPriceAed":2000000,"handover":"Q3 2028","imageUrl":"/cdn/projects/bay-grove-residences-phase-4-by-nakheel/gallery/000.webp"},{"id":"bad1cf66-2f96-4d3a-9f10-b1380cd5936d","slug":"bayfront-marina-residences","name":"Bayfront Marina Residences","developer":"Sobha Realty","area":"Umm Al Quwain Marina, Siniyah Island, Bayfront Marina Residences","city":"Umm Al Quwain","lat":25.604171,"lng":55.627719,"minPriceAed":1334658,"handover":"Q3 2029","imageUrl":"/cdn/projects/bayfront-marina-residences/gallery/000.webp"},{"id":"fb18f493-fbec-4844-8491-aa0809af82a8","slug":"bayn-lagoon","name":"Bayn Lagoon","developer":"ORA","area":"Ghantoot","city":"Abu Dhabi","lat":24.8558994,"lng":54.851121,"minPriceAed":2750000,"handover":"Q4 2028","imageUrl":"/cdn/projects/bayn-lagoon/gallery/000.webp"},{"id":"90e25abd-f2b0-40af-90ef-a6040c31d675","slug":"bayn-waterway","name":"Bayn Waterway","developer":"ORA","area":"Ghantoot","city":"Abu Dhabi","lat":24.8558994,"lng":54.851121,"minPriceAed":10000000,"handover":"Q1 2029","imageUrl":"/cdn/projects/bayn-waterway/gallery/000.webp"},{"id":"f9879778-dbdd-46d5-8072-996030d0aa8e","slug":"bayside-marina-residences","name":"Bayside Marina Residences","developer":"Sobha Realty","area":"Umm Al Quwain Marina, Siniyah Island, Bayside Marina Residences","city":"Umm Al Quwain","lat":25.603197,"lng":55.627604,"minPriceAed":1490191,"handover":"Q1 2029","imageUrl":"/cdn/projects/bayside-marina-residences/gallery/000.webp"},{"id":"f411f5e1-63ed-434c-9d04-ab7a05e786d6","slug":"bayz-101","name":"Bayz 101","developer":"Danube Properties","area":"Business Bay, Bayz 101 by Danube","city":"Dubai","lat":25.191834,"lng":55.2607651,"minPriceAed":1175000,"handover":"Q2 2028","imageUrl":"/cdn/projects/bayz-101/gallery/001.webp"},{"id":"e211b996-20e8-4a1a-9109-507e9cf5fefa","slug":"bayz-102","name":"Bayz 102","developer":"Danube Properties","area":"Business Bay, Bayz 102 by Danube","city":"Dubai","lat":25.18764136113,"lng":55.25993749598,"minPriceAed":1270000,"handover":"Q4 2029","imageUrl":"/cdn/projects/bayz-102/gallery/000.webp"},{"id":"9011cad7-db00-468a-8aac-861f216bd54c","slug":"beach-house","name":"Beach House","developer":"RAK Properties","area":"Al Marjan Island, The Beach House at Al Marjan","city":"Ras Al Khaimah","lat":25.6632304,"lng":55.747594,"minPriceAed":5445000,"handover":"Q4 2025","imageUrl":"/cdn/projects/beach-house/gallery/000.webp"},{"id":"4fb467d2-248e-47f5-90b1-4a2cf50b4b45","slug":"beach-walk-phase-4-by-imtiaz","name":"Beach Walk Phase 4 by Imtiaz","developer":"Imtiaz Developments","area":"Dubai Islands, Beach Walk IV by Imtiaz","city":"Dubai","lat":25.2886375868,"lng":55.2953476491,"minPriceAed":1942000,"handover":"Q2 2027","imageUrl":"/cdn/projects/beach-walk-phase-4-by-imtiaz/gallery/000.webp"},{"id":"43a90d0b-af71-49b5-a05c-48320e3c66eb","slug":"beach-walk-residences-4-by-imtiaz","name":"Beach Walk Residences 4 By Imtiaz","developer":"Imtiaz Developments","area":"Dubai Islands, Beach Walk Residences, Beach Walk Residences 4","city":"Dubai","lat":25.288634563,"lng":55.2953385375,"minPriceAed":1942000,"handover":"Q2 2027","imageUrl":"/cdn/projects/beach-walk-residences-4-by-imtiaz/gallery/000.webp"},{"id":"437db039-cd76-4425-a171-22d2d0f23716","slug":"berkeley-square","name":"Berkeley Square","developer":"Prestige One Developments","area":"Jumeirah Village Circle, District 13, Berkeley Square","city":"Dubai","lat":25.048275,"lng":55.209751,"minPriceAed":690000,"handover":"Q1 2028","imageUrl":"/cdn/projects/berkeley-square/gallery/000.webp"},{"id":"25bad152-9682-49e4-a119-13974b4c7b4b","slug":"bermuda","name":"Bermuda","developer":"Damac Properties","area":"Dubai Land, Damac Islands 2, Bermuda","city":"Dubai","lat":25.024701,"lng":55.316162,"minPriceAed":3844000,"handover":"Q2 2030","imageUrl":"/cdn/projects/bermuda/hero.webp"},{"id":"dd53775a-e22f-4eb2-8d8c-86fb1df2f76f","slug":"beverly-park","name":"Beverly Park","developer":"HMB Properties","area":"Dubai Land Residence Complex, Beverly Park","city":"Dubai","lat":25.086765,"lng":55.383228,"minPriceAed":575000,"handover":"Q4 2027","imageUrl":"/cdn/projects/beverly-park/gallery/000.webp"},{"id":"cdbc46f0-667b-458b-b067-84b6a326574b","slug":"binghatti-aquarise","name":"Binghatti Aquarise","developer":"Binghatti Developers","area":"Business Bay, Binghatti Aquarise","city":"Dubai","lat":25.176679,"lng":55.273303,"minPriceAed":2000000,"handover":"Q1 2027","imageUrl":"/cdn/projects/binghatti-aquarise/gallery/000.webp"},{"id":"8f366efb-b5b6-47ed-9d81-828f3bda4923","slug":"binghatti-hillcrest","name":"Binghatti HillCrest","developer":"Binghatti Developers","area":"Arjan, Binghatti Hillcrest","city":"Dubai","lat":25.066551,"lng":55.233945,"minPriceAed":808999,"handover":"Q4 2026","imageUrl":"/cdn/projects/binghatti-hillcrest/gallery/000.webp"},{"id":"f8863b16-6bc9-4977-831a-1b49ec419b85","slug":"sky-terraces","name":"Binghatti Sky Terraces","developer":"Binghatti Developers","area":"Motor City, Dubai Autodrome and Business Park, Binghatti Skyterraces","city":"Dubai","lat":25.047304,"lng":55.228926,"minPriceAed":700000,"handover":"Q4 2027","imageUrl":"/cdn/projects/sky-terraces/gallery/000.webp"},{"id":"5098b511-ce62-4d91-b8f1-33961716d414","slug":"bloom-arjaan","name":"Bloom Arjaan","developer":"Bloom Properties","area":"Saadiyat Island, Bloom Arjaan","city":"Abu Dhabi","lat":24.523437,"lng":54.434161,"minPriceAed":951000,"handover":"Q4 2024","imageUrl":"/cdn/projects/bloom-arjaan/gallery/000.webp"},{"id":"47e3ff3c-7b77-4a37-b155-70dd27dfdeda","slug":"bloom-living-granada-2","name":"Bloom Living Granada 2","developer":"Bloom Properties","area":"Khalifa City, Zayed City (Khalifa City C), Bloom Living","city":"Abu Dhabi","lat":24.400336,"lng":54.642255,"minPriceAed":690000,"handover":"Q1 2028","imageUrl":"/cdn/projects/bloom-living-granada-2/gallery/000.webp"},{"id":"bd42ccfa-63cb-4a29-8a65-4239654312f1","slug":"bloom-living-marbella","name":"Bloom Living Marbella","developer":"Bloom Properties","area":"Khalifa City, Zayed City (Khalifa City C), Bloom Living","city":"Abu Dhabi","lat":24.400336,"lng":54.642255,"minPriceAed":3876000,"handover":"Q4 2028","imageUrl":"/cdn/projects/bloom-living-marbella/gallery/000.webp"},{"id":"1e0a7f6d-9f10-4926-8922-eb7aa4ab41a6","slug":"blue-beach-residence","name":"Blue Beach Residence","developer":"Ajmal Makan","area":"Sharjah Waterfront City, Ajmal Makan City, Blue Beach Residence","city":"Sharjah","lat":25.499691,"lng":55.534435,"minPriceAed":1237000,"handover":"Q1 2028","imageUrl":"/cdn/projects/blue-beach-residence/gallery/000.webp"},{"id":"046c8e0b-af31-4df4-b080-953929fcb1aa","slug":"blue-marina-residence","name":"Blue Marina Residence","developer":"Shakirov Developments","area":"Dubai Islands, Blue Marina Residence","city":"Dubai","lat":25.2909841414,"lng":55.2935145063,"minPriceAed":1750000,"handover":"Q3 2028","imageUrl":"/cdn/projects/blue-marina-residence/gallery/000.webp"},{"id":"fc881be4-cafd-4b92-9578-6d7cb6774c65","slug":"blue-waves","name":"Blue Waves At Bluebay Walk","developer":"Ajmal Makan","area":"Sharjah Waterfront City, Ajmal Makan City, Bluebay Walk","city":"Sharjah","lat":25.49617803979,"lng":55.53759155994,"minPriceAed":509000,"handover":"Q4 2025","imageUrl":"/cdn/projects/blue-waves/gallery/000.webp"},{"id":"f4df7186-dbe7-4a8c-b501-b83756f6727a","slug":"bond-enclave","name":"Bond Enclave","developer":"Pearlshire","area":"Arjan, Bond Enclave","city":"Dubai","lat":25.06399644984,"lng":55.24189710617,"minPriceAed":1213777,"handover":"Q2 2027","imageUrl":"/cdn/projects/bond-enclave/gallery/000.webp"},{"id":"e07cae8d-7b94-407b-984a-ae78a567bd1e","slug":"bora-bora-phase-4-by-damac","name":"Bora Bora Phase 4 By Damac","developer":"Damac Properties","area":"DAMAC Islands, Bora Bora, Bora Bora 4","city":"Dubai","lat":25.0306291,"lng":55.3088826,"minPriceAed":2470000,"handover":"Q4 2028","imageUrl":"/cdn/projects/bora-bora-phase-4-by-damac/gallery/000.webp"},{"id":"67842821-57fa-4dd1-9824-a4d441987fba","slug":"boulevard-park","name":"Boulevard Park","developer":"Wasl Properties","area":"Wasl Gate, Boulevard Park","city":"Dubai","lat":25.0239732704,"lng":55.1056998209,"minPriceAed":900000,"handover":"Q2 2029","imageUrl":"/cdn/projects/boulevard-park/gallery/000.webp"},{"id":"6241166d-0ad3-431c-9b1d-73cc1a3499fd","slug":"burj-azizi-tower","name":"Burj Azizi Tower","developer":"Azizi Developments","area":"Sheikh Zayed Road, Burj Azizi","city":"Dubai","lat":25.22411819464,"lng":55.28317338805,"minPriceAed":9331000,"handover":"Q3 2030","imageUrl":"/cdn/projects/burj-azizi-tower/gallery/000.webp"},{"id":"5106921d-8698-4839-aeae-673da9d44c79","slug":"california-residences","name":"California Residences","developer":"GFH Real Estate","area":"Dubai Land, California Village, California Residence","city":"Dubai","lat":25.077702,"lng":55.324113,"minPriceAed":1100000,"handover":"Q2 2028","imageUrl":"/cdn/projects/california-residences/gallery/000.webp"},{"id":"e147e9e8-571d-4dfc-aca9-6f47b5cf85aa","slug":"calisi","name":"Calisi","developer":"Zoya Developments","area":"Dubai South (Dubai World Central)","city":"Dubai","lat":24.88975851,"lng":55.1453805,"minPriceAed":685000,"handover":"Q3 2027","imageUrl":"/cdn/projects/calisi/gallery/000.webp"},{"id":"6d325e03-0395-49e8-9ac8-53088f478a77","slug":"canalside-marina-residences","name":"Canalside Marina Residences","developer":"Sobha Realty","area":"Umm Al Quwain Marina, Siniyah Island, Canalside Marina Residences","city":"Umm Al Quwain","lat":25.609828,"lng":55.646661,"minPriceAed":1337604,"handover":"Q4 2029","imageUrl":"/cdn/projects/canalside-marina-residences/gallery/000.webp"},{"id":"c4ebb379-9415-46f9-aab8-6c4de3b9d00c","slug":"canterbury-waterfront","name":"Canterbury Waterfront","developer":"GFS Developers","area":"Ajman","city":"Ajman","lat":25.40539740222,"lng":55.51630053456,"minPriceAed":494190,"handover":"Q1 2029","imageUrl":"/cdn/projects/canterbury-waterfront/gallery/000.webp"},{"id":"6ed18c04-f1a2-4f0f-ae22-c9c635cfe839","slug":"cape-hayat","name":"Cape Hayat By Rak","developer":"RAK Properties","area":"Mina Al Arab, Cape Hayat","city":"Ras Al Khaimah","lat":25.72276978189,"lng":55.84092859581,"minPriceAed":3119000,"handover":"Q4 2026","imageUrl":"/cdn/projects/cape-hayat/gallery/000.webp"},{"id":"ebf41533-7262-4498-a849-895f4043e31d","slug":"cape-hayat-2","name":"Cape Hayat Phase 2 By Rak","developer":"RAK Properties","area":"Mina Al Arab, Hayat Island","city":"Ras Al Khaimah","lat":25.72294858307,"lng":55.84372428838,"minPriceAed":700000,"handover":"Q2 2026","imageUrl":"/cdn/projects/cape-hayat-2/hero.webp"},{"id":"33c9cff5-44ed-4bc6-b749-e371ecbeee6b","slug":"capeside-marina-residences","name":"Capeside Marina Residences","developer":"Sobha Realty","area":"Umm Al Quwain Marina, Siniyah Island","city":"Umm Al Quwain","lat":25.60417113763,"lng":55.62778316444,"minPriceAed":1980000,"handover":"Q2 2030","imageUrl":"/cdn/projects/capeside-marina-residences/gallery/000.webp"},{"id":"34a2930e-44f9-43c1-907b-e84c14df7a87","slug":"capital-horizon-terraces","name":"Capital Horizon Terraces","developer":"Capital International Real Estate","area":"Dubai Islands, Capital Horizon Terrace","city":"Dubai","lat":25.29889,"lng":55.316327,"minPriceAed":2080000,"handover":"Q4 2026","imageUrl":"/cdn/projects/capital-horizon-terraces/gallery/000.webp"},{"id":"fc50c947-0976-4465-aa50-370cb5601ed5","slug":"carmel-residences","name":"Carmel Residences","developer":"UniEstate","area":"Jumeirah Village Circle, District 13, Carmel Residence","city":"Dubai","lat":25.051261,"lng":55.209024,"minPriceAed":745175,"handover":"Q2 2026","imageUrl":"/cdn/projects/carmel-residences/gallery/000.webp"},{"id":"615c9897-1d8d-4af1-8b1f-c5211546a45c","slug":"one-casa","name":"Casa Ahs","developer":"AHS Properties","area":"Jumeirah, One Casa","city":"Dubai","lat":25.18751290733,"lng":55.24598310267,"minPriceAed":23500000,"handover":"Q2 2027","imageUrl":"/cdn/projects/one-casa/gallery/000.webp"},{"id":"0cc2b594-d209-4e7a-8e1a-aa4093864e9e","slug":"casagrand-hermina","name":"Casagrand Hermina","developer":"Casagrand Developers","area":"Dubai Islands, Hermina By Casagrand","city":"Dubai","lat":25.2956190052,"lng":55.3199902304,"minPriceAed":2300000,"handover":"Q2 2028","imageUrl":"/cdn/projects/casagrand-hermina/gallery/000.webp"},{"id":"6a2917b6-7c80-4269-a47f-9ffca2073851","slug":"casagrand-seafront-residences","name":"Casagrand Seafront Residences","developer":"Casagrand Developers","area":"Dubai Islands","city":"Dubai","lat":25.31873563,"lng":55.30294552,"minPriceAed":1800000,"handover":"Q4 2028","imageUrl":"/cdn/projects/casagrand-seafront-residences/gallery/000.webp"},{"id":"24a02de8-61f9-4713-8d2f-11301326bd98","slug":"cedarwood-estates","name":"Cedarwood Estates","developer":"Wasl Properties","area":"Jumeirah Golf Estates, Cedarwood Estates","city":"Dubai","lat":25.004124,"lng":55.181724,"minPriceAed":12800000,"handover":"Q4 2028","imageUrl":"/cdn/projects/cedarwood-estates/gallery/000.webp"},{"id":"275c404a-b173-45da-aeb4-af45777908af","slug":"celia-gardens","name":"Celia Gardens","developer":"Abou Eid Real Estate Development","area":"Nad Al Sheba, Nad Al Sheba 1, Nad Al Sheba Gardens, Celia Gardens","city":"Dubai","lat":25.13852687699,"lng":55.3175396,"minPriceAed":1600000,"handover":"Q2 2026","imageUrl":"/cdn/projects/celia-gardens/gallery/000.webp"},{"id":"8f5894f2-e359-4bbc-836b-5582a183e5c7","slug":"chapter-01","name":"Chapter 01","developer":"Newbury Development","area":"Al Warsan, Al Warsan 4, International City Phase 2, Chapter 01 by Newbury","city":"Dubai","lat":25.1442949,"lng":55.4015536,"minPriceAed":510000,"handover":"Q3 2028","imageUrl":"/cdn/projects/chapter-01/gallery/000.webp"},{"id":"511d92a6-579d-4c54-a104-0dff9b0d0c1b","slug":"chelsea-residences-2-by-damac","name":"Chelsea Residences 2 By Damac","developer":"Damac Properties","area":"Maritime City, Chelsea Residences 2 By Damac","city":"Dubai","lat":25.27946,"lng":55.259928,"minPriceAed":2160000,"handover":"Q4 2029","imageUrl":"/cdn/projects/chelsea-residences-2-by-damac/gallery/000.webp"},{"id":"1fa2dd6d-355d-433a-a65d-fcec3b1d8912","slug":"cheval-residences","name":"Cheval Residences","developer":"Avenew Properties","area":"Dubai Islands, Cheval Residences","city":"Dubai","lat":25.308719,"lng":55.315838,"minPriceAed":2800000,"handover":"Q1 2029","imageUrl":"/cdn/projects/cheval-residences/gallery/000.webp"},{"id":"96f69cdb-edc9-410a-a45c-c5587f22d340","slug":"chevalia-estate-phase-2-by-emaar","name":"Chevalia Estate Phase 2 By Emaar","developer":"Emaar Properties","area":"Dubai Investment Park (DIP), Dubai Investment Park 2 (DIP 2), Grand Polo Club and Resort, Chevalia Estate","city":"Dubai","lat":24.962722222,"lng":55.2229881534,"minPriceAed":7880000,"handover":"Q2 2029","imageUrl":"/cdn/projects/chevalia-estate-phase-2-by-emaar/gallery/000.webp"},{"id":"e970c677-6ef0-4dd1-bc5a-81d8c630cb42","slug":"chevalia-fields-at-grand-polo-club-and-resort","name":"Chevalia Fields at Grand Polo Club & Resort","developer":"Emaar Properties","area":"Dubai Investment Park (DIP), Dubai Investment Park 2 (DIP 2), Grand Polo Club and Resort, Chevalia Fields","city":"Dubai","lat":24.9736097,"lng":55.2026969,"minPriceAed":7340000,"handover":"Q2 2029","imageUrl":"/cdn/projects/chevalia-fields-at-grand-polo-club-and-resort/gallery/000.webp"},{"id":"a6da3d8a-c365-4d29-aa68-badfc6212b5d","slug":"chion","name":"Chion","developer":"Aldar Properties PJSC","area":"Dubai Land, Athlon by Aldar, Chion at Athlon","city":"Dubai","lat":25.05654229396,"lng":55.30888089815,"minPriceAed":4600000,"handover":"Q3 2028","imageUrl":"/cdn/projects/chion/hero.webp"},{"id":"dbd79068-fef6-4c98-ad9c-0f5d7cd0fc9d","slug":"city-walk-crestlane-3","name":"City Walk Crestlane 3","developer":"Meraas Holding","area":"City Walk, City Walk Crestlane, City Walk Crestlane 3","city":"Dubai","lat":25.208223,"lng":55.257024,"minPriceAed":2600000,"handover":"Q4 2028","imageUrl":"/cdn/projects/city-walk-crestlane-3/gallery/000.webp"},{"id":"d7356e52-a954-4ba1-8343-722be388feb7","slug":"city-walk-crestlane-phase-5","name":"City Walk Crestlane Phase 5","developer":"Meraas Holding","area":"City Walk, City Walk Crestlane, City Walk Crestlane 5","city":"Dubai","lat":25.2061156815,"lng":55.2570234066,"minPriceAed":2800000,"handover":"Q2 2030","imageUrl":"/cdn/projects/city-walk-crestlane-phase-5/gallery/000.webp"},{"id":"f78544fd-419d-4ec6-bf9f-d1ba1eb51034","slug":"city-walk-phase-3","name":"City Walk Phase 3 By Meraas","developer":"Meraas Holding","area":"City Walk, City Walk Phase 3","city":"Dubai","lat":25.2083616771,"lng":55.25760318651,"minPriceAed":2500000,"handover":"Q2 2029","imageUrl":"/cdn/projects/city-walk-phase-3/gallery/000.webp"},{"id":"cb3deedc-7928-444f-87e6-0d9c260e3b95","slug":"coastline-beach-residences","name":"Coastline Beach Residences","developer":"Sobha Realty","area":"Umm Al Quwain Marina, Siniyah Island, Coastline Beach Residences","city":"Umm Al Quwain","lat":25.61472,"lng":55.629142,"minPriceAed":1215000,"handover":"Q3 2028","imageUrl":"/cdn/projects/coastline-beach-residences/gallery/000.webp"},{"id":"a6b68d6b-97ef-42a3-a3d8-43bbfd2dac95","slug":"colibri-views","name":"Colibri Views","developer":"Major Developers","area":"RAK Central, Colibri Views","city":"Ras Al Khaimah","lat":25.6893802217,"lng":55.7958241567,"minPriceAed":797000,"handover":"Q4 2028","imageUrl":"/cdn/projects/colibri-views/gallery/000.webp"},{"id":"2ed8ea87-eea8-483b-9562-fb795d7d0144","slug":"coral-beach-villas","name":"Coral Beach Villas","developer":"Sobha Realty","area":"Umm Al Quwain Marina, Siniyah Island, Coral Beach Villas","city":"Umm Al Quwain","lat":25.61589956422,"lng":55.6212221999,"minPriceAed":17300000,"handover":"Q4 2027","imageUrl":"/cdn/projects/coral-beach-villas/gallery/000.webp"},{"id":"585612d1-7ed7-4ca8-87ad-0367af284730","slug":"coral-beach-villas-phase-2","name":"Coral Beach Villas Phase 2","developer":"Sobha Realty","area":"Umm Al Quwain Marina, Siniyah Island, Coral Beach Villas","city":"Umm Al Quwain","lat":25.61589956422,"lng":55.6212221999,"minPriceAed":17342736,"handover":"Q4 2028","imageUrl":"/cdn/projects/coral-beach-villas-phase-2/hero.webp"},{"id":"42df5271-6bed-4cd7-908a-a480e0314541","slug":"coralis-residences","name":"Coralis Residences","developer":"Palladium Development","area":"Meydan","city":"Dubai","lat":25.15790459,"lng":55.30040604,"minPriceAed":1950000,"handover":"Q2 2028","imageUrl":"/cdn/projects/coralis-residences/gallery/000.webp"},{"id":"607819d5-9a56-4c3d-9900-16c083f132ba","slug":"costa-mare","name":"Costa Mare","developer":"Ellington","area":"Al Marjan Island, Costa Mare","city":"Ras Al Khaimah","lat":25.68052541747,"lng":55.74527964149,"minPriceAed":2775828,"handover":"Q3 2028","imageUrl":"/cdn/projects/costa-mare/gallery/000.webp"},{"id":"803a6610-861b-4754-9a85-556f693f1780","slug":"courtyard-by-marriott","name":"Courtyard by Marriott","developer":"Khamas Group Investment","area":"Jumeirah Village Circle","city":"Dubai","lat":25.05638764826,"lng":55.20812137772,"minPriceAed":855156,"handover":"Q4 2025","imageUrl":"/cdn/projects/courtyard-by-marriott/gallery/000.webp"},{"id":"0946b12e-67bd-4f15-9454-2bafd025d92d","slug":"cove-at-lunaya-terraces","name":"Cove at Lunaya Terraces","developer":"Zaya","area":"Jebel Ali, Jebel Ali Village","city":"Dubai","lat":25.034937,"lng":55.117054,"minPriceAed":2181069,"handover":"Q3 2029","imageUrl":"/cdn/projects/cove-at-lunaya-terraces/gallery/000.webp"},{"id":"4891a9b5-5aec-478f-a147-1e23fb2aba9a","slug":"creekside-residence","name":"Creekside Residence","developer":"Al Zorah Development","area":"Al Zorah, Creekside","city":"Ajman","lat":25.42867352372,"lng":55.49553869153,"minPriceAed":1144000,"handover":"Q1 2028","imageUrl":"/cdn/projects/creekside-residence/gallery/000.webp"},{"id":"6f97cf39-b977-4127-a68c-801cd8b43158","slug":"cresswell-plaza","name":"Cresswell Plaza","developer":"Merath Development","area":"Dubai South (Dubai World Central), Residential District, Cresswell Plaza","city":"Dubai","lat":24.9373662508,"lng":55.2213542858,"minPriceAed":1110000,"handover":"Q3 2026","imageUrl":"/cdn/projects/cresswell-plaza/gallery/000.webp"},{"id":"d55d0284-e0b5-4440-8e79-5e9ba76a0afe","slug":"crystal-residences-tower-2","name":"Crystal Residences Tower 2","developer":"Eagle Hills","area":"Al Khan, Maryam Island, Crystal Residences","city":"Sharjah","lat":25.326539,"lng":55.361833,"minPriceAed":850000,"handover":"Q4 2025","imageUrl":"/cdn/projects/crystal-residences-tower-2/gallery/000.webp"},{"id":"6aeb37ab-4aa4-421f-83b8-9dece4572a48","slug":"crystal-springs-villa","name":"Crystal Springs Villa","developer":"Nakheel","area":"Palm Jebel Ali","city":"Dubai","lat":25.00455081527,"lng":54.98903382113,"minPriceAed":18100000,"handover":"Q4 2028","imageUrl":"/cdn/projects/crystal-springs-villa/gallery/000.webp"},{"id":"7c66f54c-9450-4120-a403-9aaff408f5dc","slug":"dar-global-villas","name":"D Villas","developer":"Darglobal","area":"Jumeirah Golf Estates, DG Villas","city":"Dubai","lat":25.01020272282,"lng":55.19802569834,"minPriceAed":6142650,"handover":"Q4 2028","imageUrl":"/cdn/projects/dar-global-villas/gallery/000.webp"},{"id":"351d3ec3-ece1-4652-b532-ec0e5e7e7ce2","slug":"dalmore-tower","name":"Dalmore Tower","developer":"Dalmore Development","area":"Dubai Land Residence Complex, Dalmore Tower","city":"Dubai","lat":25.0916161612,"lng":55.3829432803,"minPriceAed":1003037,"handover":"Q2 2026","imageUrl":"/cdn/projects/dalmore-tower/gallery/000.webp"},{"id":"f7dd28d9-8f72-49a3-ba42-79e0dbc42b37","slug":"damac-islands","name":"Damac Islands","developer":"Damac Properties","area":"DAMAC Islands","city":"Dubai","lat":25.02983054035,"lng":55.30452767724,"minPriceAed":2490000,"handover":"Q4 2028","imageUrl":"/cdn/projects/damac-islands/gallery/000.webp"},{"id":"9f1b2388-8e95-4e4a-9228-f03bfaca7e1c","slug":"damac-lagoon-lagoon-views-11","name":"Damac Lagoon - Lagoon Views 11","developer":"Damac Properties","area":"Damac Lagoons, Lagoon Views, Lagoon Views 11","city":"Dubai","lat":25.01283116608,"lng":55.22592795372,"minPriceAed":1512000,"handover":"Q2 2027","imageUrl":"/cdn/projects/damac-lagoon-lagoon-views-11/gallery/000.webp"},{"id":"c7939ee7-2be4-406c-8af1-00cae2fcee48","slug":"damac-lagoon-views-andalucia","name":"Damac Lagoon Views Andalucia","developer":"Damac Properties","area":"Damac Lagoons, Lagoon Views, Andalucia","city":"Dubai","lat":25.00878582327,"lng":55.22640988096,"minPriceAed":979000,"handover":"Q1 2027","imageUrl":"/cdn/projects/damac-lagoon-views-andalucia/gallery/000.webp"},{"id":"8f25b083-321f-452a-9c80-f9e730a87fb2","slug":"damac-lagoons-lagoon-views-12","name":"Damac Lagoons - Lagoon Views 12","developer":"Damac Properties","area":"Damac Lagoons, Lagoon Views, Lagoon Views 12","city":"Dubai","lat":25.00621735547,"lng":55.22903849037,"minPriceAed":1100000,"handover":"Q2 2027","imageUrl":"/cdn/projects/damac-lagoons-lagoon-views-12/gallery/000.webp"},{"id":"60c7f14e-78c8-4832-acb3-f84d29c382a2","slug":"damac-riverside","name":"Damac Riverside","developer":"Damac Properties","area":"Dubai Investment Park (DIP), Dubai Investment Park 2 (DIP 2), Damac Riverside","city":"Dubai","lat":24.98127020527,"lng":55.24312219913,"minPriceAed":3626000,"handover":"Q4 2027","imageUrl":"/cdn/projects/damac-riverside/gallery/000.webp"},{"id":"47d5f29a-5bb7-4ee6-9021-16058a071e4c","slug":"darb","name":"Darb By Alef Group","developer":"Alef Group","area":"Muwaileh, Al Mamsha","city":"Sharjah","lat":25.310526,"lng":55.46319,"minPriceAed":639000,"handover":"Q4 2025","imageUrl":"/cdn/projects/darb/gallery/000.webp"},{"id":"2ca6bbef-6ee6-4b8b-97da-24ab7c243c05","slug":"darb-2","name":"Darb Phase 2 By Alef Group","developer":"Alef Group","area":"Muwaileh","city":"Sharjah","lat":25.29867603,"lng":55.44880726,"minPriceAed":695000,"handover":"Q1 2028","imageUrl":"/cdn/projects/darb-2/gallery/000.webp"},{"id":"d7ed9d75-7b0b-4370-97cb-dec5fd5f8ff4","slug":"davinci-tower","name":"DaVinci Tower","developer":"Dar AL Arkan Properties","area":"Business Bay, DaVinci Tower","city":"Dubai","lat":25.18627724349,"lng":55.28331854233,"minPriceAed":1320000,"handover":"Q2 2024","imageUrl":"/cdn/projects/davinci-tower/gallery/000.webp"},{"id":"3d7f8be1-f209-41b0-a355-1f0c369e2fc0","slug":"deem","name":"Deem","developer":"Alef Group","area":"Hayyan","city":"Sharjah","lat":25.28151999622,"lng":55.58534955315,"minPriceAed":1690000,"handover":"Q4 2026","imageUrl":"/cdn/projects/deem/gallery/000.webp"},{"id":"069b6dc0-e073-4960-80dc-59779358e140","slug":"delphi","name":"Delphi","developer":"Aldar Properties PJSC","area":"Dubai Land, Athlon by Aldar, Delphi at Athlon","city":"Dubai","lat":25.06332884001,"lng":55.31514564418,"minPriceAed":2800000,"handover":"Q2 2028","imageUrl":"/cdn/projects/delphi/gallery/000.webp"},{"id":"8473dafb-2cbd-4726-95d8-7d8e4fa57cdf","slug":"sobha-delphine-beach-residences","name":"Delphine Beach Residences","developer":"Sobha Realty","area":"Umm Al Quwain Marina, Siniyah Island, Delphine Beach Residences","city":"Umm Al Quwain","lat":25.60544198648,"lng":55.62224146701,"minPriceAed":750000,"handover":"Q4 2027","imageUrl":"/cdn/projects/sobha-delphine-beach-residences/gallery/000.webp"},{"id":"cfa8045f-e6f4-4b70-ba27-b9d5e34fe898","slug":"derby-heights","name":"Derby Heights","developer":"Amis properties","area":"Meydan","city":"Dubai","lat":25.15790459,"lng":55.30040604,"minPriceAed":1200000,"handover":"Q4 2027","imageUrl":"/cdn/projects/derby-heights/gallery/000.webp"},{"id":"4a2107cc-921d-436b-9259-460fe0db1792","slug":"do-hotels-and-residences","name":"Do Hotels & Residences","developer":"One Development","area":"Dubai Islands, Do Hotels & Residences","city":"Dubai","lat":25.2846519168,"lng":55.2939784577,"minPriceAed":2191000,"handover":"Q4 2027","imageUrl":"/cdn/projects/do-hotels-and-residences/gallery/000.webp"},{"id":"0581660e-c451-4469-ba45-7262740946fe","slug":"east-residence-2-at-serenia-district","name":"East Residence 2 At Serenia District","developer":"Palma Development","area":"Jumeirah Islands, Serenia District, Serenia District East","city":"Dubai","lat":25.067563,"lng":55.1460561,"minPriceAed":3719000,"handover":"Q2 2030","imageUrl":"/cdn/projects/east-residence-2-at-serenia-district/gallery/000.webp"},{"id":"0f5a06a4-695e-494f-bdf8-3fb9ba863c16","slug":"east-residence-3-at-serenia-district","name":"East Residence 3 At Serenia District","developer":"Palma Development","area":"Jumeirah Islands, Serenia District, Serenia District East","city":"Dubai","lat":25.067563,"lng":55.1460561,"minPriceAed":1958000,"handover":"Q2 2030","imageUrl":"/cdn/projects/east-residence-3-at-serenia-district/gallery/000.webp"},{"id":"a1968c9d-0cb4-4647-b0a0-97fb465e6e0e","slug":"east-residence-4-at-serenia-district","name":"East Residence 4 At Serenia District","developer":"Palma Development","area":"Jumeirah Islands, Serenia District, Serenia District East","city":"Dubai","lat":25.067563,"lng":55.1460561,"minPriceAed":1960000,"handover":"Q2 2030","imageUrl":"/cdn/projects/east-residence-4-at-serenia-district/gallery/000.webp"},{"id":"fc7dd227-d3e9-4e1b-b5a0-f73d7104ef22","slug":"east-residence-5-at-serenia-district","name":"East Residence 5 At Serenia District","developer":"Palma Development","area":"Jumeirah Islands, Serenia District, Serenia District East","city":"Dubai","lat":25.067563,"lng":55.1460561,"minPriceAed":1960000,"handover":"Q2 2030","imageUrl":"/cdn/projects/east-residence-5-at-serenia-district/gallery/000.webp"},{"id":"d9c1bef9-a988-4502-ab6c-f5ab272f0f02","slug":"east-residence-6-at-serenia-district","name":"East Residence 6 At Serenia District","developer":"Palma Development","area":"Jumeirah Islands, Serenia District, Serenia District East","city":"Dubai","lat":25.067563,"lng":55.1460561,"minPriceAed":1960000,"handover":"Q2 2030","imageUrl":"/cdn/projects/east-residence-6-at-serenia-district/gallery/000.webp"},{"id":"f54c0b0c-762d-4757-abb8-865c39050ab2","slug":"edgewater-residences-2","name":"Edgewater Residences Phase 2 By MGS","developer":"MGS Development","area":"Dubai Islands, Edgewater Residences, Edgewater Residences 2","city":"Dubai","lat":25.30050957223,"lng":55.29928404663,"minPriceAed":1945300,"handover":"Q3 2026","imageUrl":"/cdn/projects/edgewater-residences-2/gallery/000.webp"},{"id":"2ddf383f-37b1-4e6c-8390-fa68285bbbbc","slug":"edgewater-residences-3","name":"Edgewater Residences Phase 3 By MGS","developer":"MGS Development","area":"Dubai Islands, Edgewater Residences, Edgewater Residences 3","city":"Dubai","lat":25.30076228859,"lng":55.29807555952,"minPriceAed":1945300,"handover":"Q3 2026","imageUrl":"/cdn/projects/edgewater-residences-3/gallery/000.webp"},{"id":"ac447121-4f8e-421f-8164-7b527c3d591f","slug":"edra-villas","name":"Edra Villas","developer":"H&H Development","area":"Mohammed Bin Rashid City, Eden Hills","city":"Dubai","lat":25.1076236,"lng":55.2681004,"minPriceAed":79900000,"handover":"Q2 2028","imageUrl":"/cdn/projects/edra-villas/gallery/000.webp"},{"id":"225d7931-a9cc-43d3-9d96-24d8c6f0912a","slug":"ela-by-omniyat","name":"Ela By Omniyat","developer":"Omniyat Group","area":"Palm Jumeirah, The Crescent, ELA Residences","city":"Dubai","lat":25.140423,"lng":55.139493,"minPriceAed":43300000,"handover":"Q1 2028","imageUrl":"/cdn/projects/ela-by-omniyat/gallery/000.webp"},{"id":"b4d4de5c-8943-420e-96c2-f6aa4c3577d8","slug":"elar1s-axis","name":"ELAR1S Axis","developer":"Object 1","area":"Jumeirah Village Triangle, District 1, Elar1s Axis","city":"Dubai","lat":25.0350930158,"lng":55.1761969267,"minPriceAed":817000,"handover":"Q3 2028","imageUrl":"/cdn/projects/elar1s-axis/gallery/000.webp"},{"id":"e7f060ab-2465-431b-a9b3-a0edf45f6967","slug":"elar1s-sky","name":"ELAR1S Sky","developer":"Object 1","area":"Jumeirah Village Triangle, District 3, Elar1s Sky","city":"Dubai","lat":25.0468605244,"lng":55.1861321,"minPriceAed":767000,"handover":"Q4 2028","imageUrl":"/cdn/projects/elar1s-sky/gallery/000.webp"},{"id":"3299518c-61f8-4a82-9cbe-eb3fa31e38b7","slug":"elevia-residences-phase-2-by-valores","name":"Elevia Residences Phase 3 by Valores","developer":"Valores Property Development","area":"Al Warsan, Al Warsan 4, International City Phase 2, Elevia Residences","city":"Dubai","lat":25.1440877586,"lng":55.3943601981,"minPriceAed":450000,"handover":"Q1 2027","imageUrl":"/cdn/projects/elevia-residences-phase-2-by-valores/hero.webp"},{"id":"e7fcb0bd-650f-4c7e-a260-a36ad6a2c668","slug":"ellington-ocean-house","name":"Ellington Ocean House","developer":"Ellington","area":"Palm Jumeirah, The Crescent, Ocean House","city":"Dubai","lat":25.133206,"lng":55.151894,"minPriceAed":22580828,"handover":"Q4 2026","imageUrl":"/cdn/projects/ellington-ocean-house/gallery/000.webp"},{"id":"f1010763-e700-4c9b-b511-bb14f5d66e1d","slug":"ellington-sands","name":"Ellington Sands","developer":"Ellington","area":"Dubai Islands, Ellington Sands","city":"Dubai","lat":25.2955269328,"lng":55.2927405871,"minPriceAed":1700000,"handover":"Q4 2028","imageUrl":"/cdn/projects/ellington-sands/gallery/000.webp"},{"id":"569bbd52-ce3f-443f-86e0-2d2577705638","slug":"elo-3","name":"ELO 3","developer":"Damac Properties","area":"Damac Hills 2, Elo, Elo 3","city":"Dubai","lat":24.98255695635,"lng":55.39038322454,"minPriceAed":1311000,"handover":"Q3 2027","imageUrl":"/cdn/projects/elo-3/gallery/000.webp"},{"id":"24d8ce1a-eb74-4060-9681-50b37a188594","slug":"eltiera-views-2","name":"Eltiera Views 2","developer":"Ellington","area":"Jumeirah Islands, Eltiera Views","city":"Dubai","lat":25.0643893,"lng":55.142888,"minPriceAed":2221828,"handover":"Q4 2029","imageUrl":"/cdn/projects/eltiera-views-2/gallery/000.webp"},{"id":"294267ab-c22c-4b14-82be-0b33cc1036d3","slug":"emerge-residences","name":"Emerge Residences","developer":"NAAS Development","area":"Meydan, Meydan Avenue, Emerge Residences","city":"Dubai","lat":25.149072,"lng":55.288257,"minPriceAed":1600000,"handover":"Q4 2027","imageUrl":"/cdn/projects/emerge-residences/gallery/000.webp"},{"id":"a7b340ae-5517-4880-9e37-b919a164b941","slug":"emerge-residences","name":"Émerge Residences","developer":"Elysian Development","area":"Meydan, Meydan Avenue, Emerge Residences","city":"Dubai","lat":25.149072,"lng":55.288257,"minPriceAed":1590000,"handover":"Q4 2027","imageUrl":"https://new-projects-media.propertyfinder.com/project/a7b340ae-5517-4880-9e37-b919a164b941/gallery/image/GlP_jZLidZQblTizB_yE3RSqZxb22IKx-_kL3ZlOuYI=/medium.webp"},{"id":"36dd0009-34dc-45bb-a69f-f7eed881a01b","slug":"enre-residence","name":"Enre Residence","developer":"Imtiaz Developments","area":"Dubai South (Dubai World Central), Residential District, Enre Residence by Imtiaz","city":"Dubai","lat":24.943477704,"lng":55.2166499186,"minPriceAed":673000,"handover":"Q3 2028","imageUrl":"/cdn/projects/enre-residence/gallery/000.webp"},{"id":"f3fe3754-b0bf-4ab3-8446-4963ecccdac2","slug":"enta-mina-residences","name":"Enta Mina Residences","developer":"RAK Properties","area":"Mina Al Arab, Hayat Island, Enta Mina Residences","city":"Ras Al Khaimah","lat":25.719335371,"lng":55.8404829851,"minPriceAed":896000,"handover":"Q1 2028","imageUrl":"/cdn/projects/enta-mina-residences/gallery/000.webp"},{"id":"2e22da14-c5a5-467f-b499-9c3b1529e241","slug":"essenlife","name":"Essenlife","developer":"Object 1","area":"Jumeirah Village Triangle, District 3, Essenl1fe","city":"Dubai","lat":25.04017414132,"lng":55.18319537302,"minPriceAed":752000,"handover":"Q4 2027","imageUrl":"/cdn/projects/essenlife/gallery/000.webp"},{"id":"eea08630-d5a9-45ab-8e33-00e04cfe1385","slug":"evergr1n-house-3","name":"Evergr1n House 3","developer":"Object 1","area":"Al Satwa, Jumeirah Garden City, Evergr1n House 3","city":"Dubai","lat":25.2209678668,"lng":55.2719961884,"minPriceAed":1098000,"handover":"Q1 2028","imageUrl":"/cdn/projects/evergr1n-house-3/gallery/000.webp"},{"id":"2bfc1426-ea1b-44da-a601-a5cb1d93fbd7","slug":"evergr1n-house-4","name":"Evergr1n House 4","developer":"Object 1","area":"Al Satwa, Jumeirah Garden City, Evergr1n House 4","city":"Dubai","lat":25.2240745874,"lng":55.2789966442,"minPriceAed":1140000,"handover":"Q2 2026","imageUrl":"/cdn/projects/evergr1n-house-4/hero.webp"},{"id":"da4b5fbd-4b5f-4221-bb79-17eef4388010","slug":"eywa-the-tree-of-life","name":"Eywa The Tree of Life","developer":"R. Evolution","area":"Business Bay, Eywa","city":"Dubai","lat":25.18311279253,"lng":55.27318136402,"minPriceAed":12490000,"handover":"Q2 2026","imageUrl":"/cdn/projects/eywa-the-tree-of-life/gallery/000.webp"},{"id":"32d92cda-2e54-47bb-90e7-fe67cbf94c97","slug":"fairmont-residences-solara-tower","name":"Fairmont Residences Solara Tower By Sol","developer":"Sol Properties","area":"Downtown Dubai, Fairmont Residences Solara Tower","city":"Dubai","lat":25.1921457857,"lng":55.27506721582,"minPriceAed":2700000,"handover":"Q3 2027","imageUrl":"/cdn/projects/fairmont-residences-solara-tower/gallery/000.webp"},{"id":"77119bb6-fdde-482b-9127-1c0ec06d2cf1","slug":"fashion-tv-acacia","name":"Fashion TV Acacia","developer":"BNW Developments","area":"Al Marjan Island","city":"Ras Al Khaimah","lat":25.67808188304,"lng":55.74006227959,"minPriceAed":1960000,"handover":"Q2 2028","imageUrl":"/cdn/projects/fashion-tv-acacia/gallery/000.webp"},{"id":"9a373288-6b15-4d9a-833c-670c779cc97a","slug":"fay-gardens-at-fay-hills","name":"Fay Gardens at Fay Hills","developer":"Taraf Properties","area":"Masdar City","city":"Abu Dhabi","lat":24.4908186,"lng":54.3687862,"minPriceAed":4500000,"handover":"Q2 2028","imageUrl":"/cdn/projects/fay-gardens-at-fay-hills/gallery/000.webp"},{"id":"ef708538-739f-4ab2-875a-1d82906c4e8b","slug":"fay-hills","name":"Fay Hills","developer":"Taraf Properties","area":"Masdar City, Fay Hills","city":"Abu Dhabi","lat":24.4303812312,"lng":54.6077850202,"minPriceAed":4500000,"handover":"Q2 2028","imageUrl":"/cdn/projects/fay-hills/gallery/000.webp"},{"id":"61f7ec42-c444-4fb4-9e33-548914b64c3b","slug":"fay-valley","name":"Fay Valley","developer":"Taraf Properties","area":"Masdar City, Fay Hills","city":"Abu Dhabi","lat":24.4303812312,"lng":54.6077850202,"minPriceAed":3140000,"handover":"Q2 2030","imageUrl":"/cdn/projects/fay-valley/gallery/000.webp"},{"id":"4f186360-54cb-433c-8b5b-ce0e9f62489d","slug":"floarea-breeze","name":"Floarea Breeze","developer":"Mashriq Elite Developments","area":"Dubai Islands, Floarea Breeze","city":"Dubai","lat":25.2906687277,"lng":55.2996690396,"minPriceAed":1890000,"handover":"Q2 2028","imageUrl":"/cdn/projects/floarea-breeze/gallery/000.webp"},{"id":"0e3f2c7f-5a28-454a-93c3-e2ad97e371a9","slug":"flora-isle","name":"Flora Isle","developer":"Flora Realty","area":"Dubai Islands, Flora Isle","city":"Dubai","lat":25.30201973852,"lng":55.3004664753,"minPriceAed":2088888,"handover":"Q1 2028","imageUrl":"/cdn/projects/flora-isle/gallery/000.webp"},{"id":"2a1d8a3e-af42-45f7-b9d5-9d77dd73c448","slug":"sobha-florine-beach-residences","name":"Florine Beach Residences","developer":"Sobha Realty","area":"Umm Al Quwain Marina, Siniyah Island, Florine Beach Residences","city":"Umm Al Quwain","lat":25.61814257847,"lng":55.63696560272,"minPriceAed":1210000,"handover":"Q3 2028","imageUrl":"/cdn/projects/sobha-florine-beach-residences/gallery/000.webp"},{"id":"aac7babb-58b7-4ce1-a8cc-99d8f9c69304","slug":"flow-25","name":"Flow 25","developer":"GAF Property","area":"Al Reem Island","city":"Abu Dhabi","lat":24.4942437,"lng":54.4068603,"minPriceAed":1939500,"handover":"Q1 2029","imageUrl":"/cdn/projects/flow-25/gallery/000.webp"},{"id":"aeb5e25f-277a-4cfd-a672-ae017ee40cfd","slug":"flow-residences","name":"Flow Residences","developer":"Main Realty","area":"Dubai Islands, Flow Residences","city":"Dubai","lat":25.2897591075,"lng":55.3027079153,"minPriceAed":2070000,"handover":"Q2 2027","imageUrl":"/cdn/projects/flow-residences/gallery/000.webp"},{"id":"d13de52a-9cdd-492a-a68a-f54424cd7a6d","slug":"forest","name":"Forest","developer":"Aldar Properties PJSC","area":"Dubai Land, Haven By Aldar, Verdes, Forest","city":"Dubai","lat":25.07955730096,"lng":55.37486694753,"minPriceAed":990000,"handover":"Q2 2028","imageUrl":"/cdn/projects/forest/gallery/000.webp"},{"id":"b3bf2e63-e487-4b92-a570-a793370192eb","slug":"fortune-bay-residences","name":"Fortune Bay Residences","developer":"Topero Properties","area":"Al Marjan Island, Fortune Bay Residences","city":"Ras Al Khaimah","lat":25.6745912,"lng":55.7407121,"minPriceAed":2500000,"handover":"Q4 2026","imageUrl":"/cdn/projects/fortune-bay-residences/gallery/000.webp"},{"id":"7230f31d-4d25-4406-8af9-038d2c3d7515","slug":"four-seasons-private-residences","name":"Four Seasons Private Residences","developer":"Al Ain Holding","area":"Al Maryah Island, Four Seasons Private Residences","city":"Abu Dhabi","lat":24.5030891,"lng":54.3874922,"minPriceAed":54200000,"handover":"Q3 2029","imageUrl":"/cdn/projects/four-seasons-private-residences/gallery/000.webp"},{"id":"99bc2db6-8977-4a06-81b4-3e96fbe273aa","slug":"four-seasons-private-residences-at-difc","name":"Four Seasons Private Residences at DIFC","developer":"H&H Development","area":"DIFC, Four Seasons Private Residences","city":"Dubai","lat":25.211024,"lng":55.279641,"minPriceAed":22887836,"handover":"Q1 2027","imageUrl":"/cdn/projects/four-seasons-private-residences-at-difc/gallery/000.webp"},{"id":"acfecd48-ca06-4dd7-8aaa-4a41a380f4a3","slug":"future-residence","name":"Future Residence","developer":"True Future","area":"Meydan, Future Residence","city":"Dubai","lat":25.1793682,"lng":55.3238277,"minPriceAed":1350000,"handover":"Q4 2027","imageUrl":"/cdn/projects/future-residence/gallery/000.webp"},{"id":"ccc48493-156e-4371-9b41-9d1f2a731399","slug":"galleria-residences","name":"Galleria Residences","developer":"Evera Real Estate","area":"Dubai South (Dubai World Central)","city":"Dubai","lat":24.88975851,"lng":55.1453805,"minPriceAed":709277,"handover":"Q4 2027","imageUrl":"/cdn/projects/galleria-residences/gallery/000.webp"},{"id":"fd5ad794-8c3f-4b97-afc6-4f9c368a99f3","slug":"garnet-by-siroya","name":"Garnet by Siroya","developer":"Siroya Ventures","area":"Dubai South (Dubai World Central), Garnet by Siroya","city":"Dubai","lat":24.9479695,"lng":55.2281678,"minPriceAed":900000,"handover":"Q3 2027","imageUrl":"/cdn/projects/garnet-by-siroya/gallery/000.webp"},{"id":"ba3edd32-a442-4652-bd14-9a8c96af59de","slug":"gateway-porto-al-zorah","name":"Gateway Porto Al Zorah","developer":"Al Zorah Development","area":"Al Zorah","city":"Ajman","lat":25.43642482,"lng":55.49153298,"minPriceAed":896230,"handover":"Q4 2026","imageUrl":"/cdn/projects/gateway-porto-al-zorah/gallery/000.webp"},{"id":"2678be8c-5792-4b89-b219-f2365f2f3b45","slug":"ghadeer-at-expo-valley-views","name":"Ghadeer at Expo Valley Views","developer":"Expo City Dubai","area":"Expo City, Expo Valley, Expo Valley Views, Ghadeer","city":"Dubai","lat":24.9626291509,"lng":55.1644431024,"minPriceAed":1594000,"handover":"Q4 2029","imageUrl":"/cdn/projects/ghadeer-at-expo-valley-views/gallery/000.webp"},{"id":"0c65a2b7-4ebb-46ab-84f5-482cae4af88e","slug":"gianfranco-ferre-residences","name":"Gianfranco Ferré Residences","developer":"Mira Developments","area":"Al Marjan Island, Gianfranco Ferre Residences","city":"Ras Al Khaimah","lat":25.687821816,"lng":55.731733796,"minPriceAed":1200000,"handover":"Q1 2028","imageUrl":"/cdn/projects/gianfranco-ferre-residences/gallery/000.webp"},{"id":"bcd1449c-e939-4671-ab7b-dc0634ea0fab","slug":"golden-woods-albab-views","name":"Golden Woods Albab Views","developer":"Golden Woods Real Estate","area":"Dubai South (Dubai World Central), Residential District, Golden Woods Albab Views","city":"Dubai","lat":24.9454383945,"lng":55.2241177423,"minPriceAed":497292,"handover":"Q1 2027","imageUrl":"/cdn/projects/golden-woods-albab-views/gallery/000.webp"},{"id":"f8aa6e42-3286-4915-aad3-2954bf4aaa85","slug":"golf-hills","name":"Golf Hills","developer":"Emaar Properties","area":"Dubai South (Dubai World Central), Emaar South, Golf Hills","city":"Dubai","lat":24.860373,"lng":55.135485,"minPriceAed":1060000,"handover":"Q3 2029","imageUrl":"/cdn/projects/golf-hills/gallery/000.webp"},{"id":"39b56968-455c-4ae3-b40b-f475c21f3d24","slug":"golf-vale","name":"Golf Vale","developer":"Emaar Properties","area":"Dubai South (Dubai World Central), Emaar South, Golf Vale","city":"Dubai","lat":24.8627389119,"lng":55.1414705035,"minPriceAed":1099888,"handover":"Q1 2030","imageUrl":"/cdn/projects/golf-vale/gallery/000.webp"},{"id":"f68c4b92-d998-4bd0-b16c-47cd07377d80","slug":"green-vistas","name":"Green Vistas","developer":"Sobha Realty","area":"Bukadra, Sobha Hartland II, Green Vistas","city":"Dubai","lat":25.17215554224,"lng":55.33217112671,"minPriceAed":1700000,"handover":"Q4 2028","imageUrl":"/cdn/projects/green-vistas/gallery/000.webp"},{"id":"d0fe54c6-a4b4-4b73-b9cd-20e91e9d1c7a","slug":"green-wood-royal","name":"Green Wood Royal","developer":"LEOS International","area":"Umm Al Daman, Green Wood Royal","city":"Dubai","lat":25.0602528852,"lng":55.4177784247,"minPriceAed":3600000,"handover":"Q4 2028","imageUrl":"/cdn/projects/green-wood-royal/gallery/000.webp"},{"id":"6b99381a-d869-4325-b76d-96ab2fb3b241","slug":"greenspoint-2","name":"Greenspoint Phase 2 By Emaar","developer":"Emaar Properties","area":"Dubai South (Dubai World Central), Emaar South, Greenspoint 2","city":"Dubai","lat":24.8481170687,"lng":55.138661627,"minPriceAed":3530000,"handover":"Q1 2029","imageUrl":"/cdn/projects/greenspoint-2/gallery/000.webp"},{"id":"fb4b65e7-0048-4264-8b2e-4c5e4f71c5e9","slug":"greenz-by-danube","name":"Greenz by Danube","developer":"Danube Properties","area":"Al Rowaiyah 1","city":"Dubai","lat":25.09168149,"lng":55.38863548,"minPriceAed":3500000,"handover":"Q4 2029","imageUrl":"/cdn/projects/greenz-by-danube/gallery/000.webp"},{"id":"1783996a-48c8-4106-b86f-b37cddc2ba6e","slug":"greygate-residences","name":"Greygate Residences","developer":"ADE Properties","area":"Jumeirah Village Circle, District 11, Greygate Residences by Ade","city":"Dubai","lat":25.058711,"lng":55.212489,"minPriceAed":657225,"handover":"Q1 2028","imageUrl":"/cdn/projects/greygate-residences/gallery/000.webp"},{"id":"4d64ea2c-dd60-464f-af82-679394ca914e","slug":"guzel-towers","name":"Guzel Tower By Tiger Group","developer":"Tiger Group","area":"Jumeirah Village Triangle, District 1, Guzel Towers","city":"Dubai","lat":25.03252792709,"lng":55.17276513101,"minPriceAed":794148,"handover":"Q4 2027","imageUrl":"/cdn/projects/guzel-towers/gallery/000.webp"},{"id":"665bc38c-4709-4c90-99e0-cdea201abdbf","slug":"guzel-towers-phase-4-by-tiger","name":"Guzel Towers Phase 4 by Tiger","developer":"Tiger Group","area":"Jumeirah Village Triangle","city":"Dubai","lat":25.04686052444,"lng":55.1898372923,"minPriceAed":746288,"handover":"Q4 2027","imageUrl":"/cdn/projects/guzel-towers-phase-4-by-tiger/gallery/000.webp"},{"id":"302ccb56-9b89-4924-a79d-5421d21b02d9","slug":"harbour-by-prestige-one","name":"Harbour by Prestige One","developer":"Prestige One Developments","area":"Dubai Islands","city":"Dubai","lat":25.31873563,"lng":55.30294552,"minPriceAed":1800000,"handover":"Q3 2027","imageUrl":"/cdn/projects/harbour-by-prestige-one/gallery/000.webp"},{"id":"94b98884-b5a9-454e-91e8-7e234e5bab99","slug":"haven-phase-3-by-aldar","name":"Haven Phase 3 by Aldar","developer":"Aldar Properties PJSC","area":"Dubai Land, Haven By Aldar 3","city":"Dubai","lat":25.08088714139,"lng":55.37684900003,"minPriceAed":3000000,"handover":"Q3 2027","imageUrl":"/cdn/projects/haven-phase-3-by-aldar/hero.webp"},{"id":"b1d4bb00-ed6a-4814-b889-17ff8c7a31d0","slug":"havencia","name":"Havencia","developer":"ALA Developments","area":"Dubai Land Residence Complex, Havencia","city":"Dubai","lat":25.0923726,"lng":55.374946,"minPriceAed":650000,"handover":"Q1 2028","imageUrl":"/cdn/projects/havencia/gallery/000.webp"},{"id":"5f570d5d-8a0e-4ad9-adb5-900db5531a51","slug":"hayat-phase-2-residences-by-dubai-south","name":"Hayat Residences Phase 2 by Dubai South","developer":"Dubai South","area":"Dubai South (Dubai World Central)","city":"Dubai","lat":24.88975851,"lng":55.1453805,"minPriceAed":3400000,"handover":"Q2 2028","imageUrl":"/cdn/projects/hayat-phase-2-residences-by-dubai-south/gallery/000.webp"},{"id":"29916f84-fdf7-49aa-bdbb-7a4e2c254798","slug":"hayyan","name":"Hayyan","developer":"Alef Group","area":"Hayyan","city":"Sharjah","lat":25.28151999622,"lng":55.58534955315,"minPriceAed":1899000,"handover":"Q4 2026","imageUrl":"/cdn/projects/hayyan/gallery/000.webp"},{"id":"b0771499-efd0-47e1-9b93-8159e395e79b","slug":"helvetia-marine","name":"Helvetia Marine","developer":"DHG Properties","area":"Dubai Islands, Helvetia Marine","city":"Dubai","lat":25.289329,"lng":55.299741,"minPriceAed":2010000,"handover":"Q1 2028","imageUrl":"/cdn/projects/helvetia-marine/gallery/000.webp"},{"id":"abf869c5-1525-4f8b-a4ad-62300fa3d792","slug":"helvetia-residences","name":"Helvetia Residences By DHG Properties","developer":"DHG Properties","area":"Jumeirah Village Circle, District 14, Helvetia Residences","city":"Dubai","lat":25.04747099609,"lng":55.20594913777,"minPriceAed":1350000,"handover":"Q1 2026","imageUrl":"/cdn/projects/helvetia-residences/gallery/000.webp"},{"id":"eb8f7750-9d33-4f1e-af9b-45bde1434ab4","slug":"henge-residences","name":"Henge Residences","developer":"Nord Development","area":"Saadiyat Island, Henge Residences By NORD","city":"Abu Dhabi","lat":24.52121359424,"lng":54.43675804124,"minPriceAed":1100000,"handover":"Q1 2028","imageUrl":"/cdn/projects/henge-residences/gallery/000.webp"},{"id":"b53bcf2c-7dfe-46e8-8de2-d5285983d8f4","slug":"hillside-residences-2","name":"Hillside Residences Phase 2 By Wasl","developer":"Wasl Properties","area":"Wasl Gate, Hillside Residences 2","city":"Dubai","lat":25.02683837104,"lng":55.11095027192,"minPriceAed":3680000,"handover":"Q3 2027","imageUrl":"/cdn/projects/hillside-residences-2/gallery/000.webp"},{"id":"d48fa591-d922-4ba8-8399-374eae105498","slug":"hilton-residences-abu-dhabi-al-raha","name":"Hilton Residences Abu Dhabi Al Raha","developer":"Emirates Limited Investment Development","area":"Al Raha Beach, Hilton Residences","city":"Abu Dhabi","lat":24.449086,"lng":54.59713,"minPriceAed":2500000,"handover":"Q4 2028","imageUrl":"/cdn/projects/hilton-residences-abu-dhabi-al-raha/gallery/000.webp"},{"id":"981d6b93-3c1a-4dc8-878b-c7138c38925d","slug":"hilton-residences-jlt","name":"Hilton Residences JLT","developer":"Emirates Developments","area":"Jumeirah Lake Towers, JLT Cluster F, Hilton Residences","city":"Dubai","lat":25.0728116673,"lng":55.1423938919,"minPriceAed":2800000,"handover":"Q3 2027","imageUrl":"/cdn/projects/hilton-residences-jlt/gallery/000.webp"},{"id":"26e2c462-7e04-47d6-ac19-2588cd36e05e","slug":"house-of-well-2","name":"House of Well 2","developer":"WELL Concept","area":"Dubai Islands, House of Well","city":"Dubai","lat":25.2907338642,"lng":55.3042941609,"minPriceAed":1866824,"handover":"Q1 2027","imageUrl":"/cdn/projects/house-of-well-2/hero.webp"},{"id":"f6347ca3-dca1-43bd-9246-a0cd656a753a","slug":"hudayriyat-golf-estate","name":"Hudayriyat Golf Estate","developer":"Modon Properties","area":"Al Hudayriat Island, Hudayriyat Golf Estates","city":"Abu Dhabi","lat":24.4295475,"lng":54.3474324,"minPriceAed":4250000,"handover":"Q3 2030","imageUrl":"/cdn/projects/hudayriyat-golf-estate/gallery/000.webp"},{"id":"a32b26bc-9c75-4e91-8583-3c7787915c9e","slug":"hyde-residences","name":"Hyde Residences","developer":"CITYVIEW Developments","area":"Dubai Hills Estate, Hyde Residences","city":"Dubai","lat":25.1091930551,"lng":55.24985475767,"minPriceAed":2017777,"handover":"Q1 2027","imageUrl":"/cdn/projects/hyde-residences/gallery/000.webp"},{"id":"eca09356-5c65-4765-8dd6-276236739a5f","slug":"iluka","name":"Iluka","developer":"Ms Homes Development","area":"Dubai Islands, Iluka Residences","city":"Dubai","lat":25.29163567424,"lng":55.29301464558,"minPriceAed":3880704,"handover":"Q3 2026","imageUrl":"/cdn/projects/iluka/gallery/000.webp"},{"id":"a0a7d893-4f5c-4060-b916-d67442b2b956","slug":"inara-residence","name":"Inara Residence","developer":"Imtiaz Developments","area":"Dubai South (Dubai World Central)","city":"Dubai","lat":24.88975851,"lng":55.1453805,"minPriceAed":673000,"handover":"Q1 2028","imageUrl":"/cdn/projects/inara-residence/gallery/000.webp"},{"id":"90cde306-dc88-4441-8ff5-35bb359b6de2","slug":"ir1dian-park","name":"IR1DIAN Park","developer":"Object 1","area":"Jumeirah Village Circle, District 13, IR1DIAN Park","city":"Dubai","lat":25.05002312834,"lng":55.21261685935,"minPriceAed":772000,"handover":"Q2 2027","imageUrl":"/cdn/projects/ir1dian-park/gallery/000.webp"},{"id":"079fece3-bc82-47f3-8b70-df611bcb6740","slug":"ir1dian-park-phase-2-by-object-1","name":"IR1DIAN Park Phase 2 By object 1","developer":"Object 1","area":"Jumeirah Village Circle, District 13, IR1DIAN Park","city":"Dubai","lat":25.05002312834,"lng":55.21261685935,"minPriceAed":827530,"handover":"Q2 2027","imageUrl":"/cdn/projects/ir1dian-park-phase-2-by-object-1/gallery/000.webp"},{"id":"35130438-e851-41df-9d66-307e35f956fb","slug":"isla-private-residences","name":"Isla Private Residences","developer":"Chaimaa Holding Limited","area":"Dubai Islands","city":"Dubai","lat":25.31873563,"lng":55.30294552,"minPriceAed":2200000,"handover":"Q1 2028","imageUrl":"/cdn/projects/isla-private-residences/gallery/000.webp"},{"id":"a71b3ea4-7ba4-4ebb-9c48-f7626a50890c","slug":"island-heights","name":"Island Heights","developer":"Range Developments","area":"Al Marjan Island, Island Heights","city":"Ras Al Khaimah","lat":25.68946909003,"lng":55.73439304949,"minPriceAed":1175706,"handover":"Q1 2028","imageUrl":"/cdn/projects/island-heights/gallery/000.webp"},{"id":"e37f76d3-e513-4509-9b20-3fc91d566467","slug":"jacob-and-co-residences","name":"Jacob & Co Residences","developer":"Mantra Developments","area":"Al Marjan Island, Jacob & Co Residences","city":"Ras Al Khaimah","lat":25.6885490186,"lng":55.7351699302,"minPriceAed":1022888,"handover":"Q2 2028","imageUrl":"/cdn/projects/jacob-and-co-residences/gallery/000.webp"},{"id":"046aeba0-6fa7-4ec2-8f83-0e456c7830b0","slug":"jacob-and-co-beachfront-living","name":"Jacob & Co. Beachfront Living","developer":"Ohana Real Estate Development","area":"Ghantoot, AlJurf, Jacob & Co. Beachfront Living","city":"Abu Dhabi","lat":24.38907342856,"lng":54.62284787302,"minPriceAed":1500000,"handover":"Q2 2028","imageUrl":"/cdn/projects/jacob-and-co-beachfront-living/gallery/000.webp"},{"id":"abd1574b-bca2-4bfe-aea9-49ef7b53278e","slug":"jad-288","name":"JAD288","developer":"JAD Global","area":"Al Satwa, Jumeirah Garden City, Jad 288","city":"Dubai","lat":25.2277254989,"lng":55.2793536893,"minPriceAed":850288,"handover":"Q4 2027","imageUrl":"/cdn/projects/jad-288/gallery/000.webp"},{"id":"c6b01e43-e0c0-49f6-9400-ac2f83dbdb07","slug":"jawaher-residences-2","name":"Jawaher Residences Phase 2 By Eagle Hills","developer":"Eagle Hills","area":"Al Khan, Maryam Island, Jawaher Residences","city":"Sharjah","lat":25.325483,"lng":55.361885,"minPriceAed":727890,"handover":"Q1 2025","imageUrl":"/cdn/projects/jawaher-residences-2/hero.webp"},{"id":"e194903f-43a4-4ecb-a67b-b7a973fd8731","slug":"joud-residence","name":"Joud Residence","developer":"One Development","area":"Al Reem Island","city":"Abu Dhabi","lat":24.4942437,"lng":54.4068603,"minPriceAed":1460000,"handover":"Q2 2029","imageUrl":"/cdn/projects/joud-residence/gallery/000.webp"},{"id":"d97910cc-3e43-418b-b643-88bb4f835d46","slug":"juman-2","name":"Juman 2","developer":"ICT Real Estate Development","area":"Al Raha Beach, Juman 2","city":"Abu Dhabi","lat":24.442953,"lng":54.569582,"minPriceAed":1100000,"handover":"Q2 2029","imageUrl":"/cdn/projects/juman-2/gallery/000.webp"},{"id":"f68772b6-f932-4652-8ab6-28e889242837","slug":"juman-3","name":"Juman 3","developer":"ICT Real Estate Development","area":"Al Raha Beach, Juman 3","city":"Abu Dhabi","lat":24.522319,"lng":54.625947,"minPriceAed":1100000,"handover":"Q4 2029","imageUrl":"/cdn/projects/juman-3/gallery/000.webp"},{"id":"95b6436f-b882-4d1b-a421-2fe0a69ee887","slug":"jumeirah-residences","name":"Jumeirah Residences","developer":"Emirates Developments","area":"Al Maryah Island","city":"Abu Dhabi","lat":24.4984378,"lng":54.3890855,"minPriceAed":4700000,"handover":"Q4 2030","imageUrl":"/cdn/projects/jumeirah-residences/gallery/000.webp"},{"id":"4bfc7832-96be-472a-9762-8ca7dcb06d15","slug":"jw-marriott-residences","name":"JW Marriott Residences","developer":"WOW Resorts","area":"Al Marjan Island, JW Marriott Residences","city":"Ras Al Khaimah","lat":25.68082309151,"lng":55.75106620789,"minPriceAed":3116827,"handover":"Q4 2027","imageUrl":"/cdn/projects/jw-marriott-residences/gallery/000.webp"},{"id":"cf1502fd-65ce-4637-b0d5-d91a31e706ee","slug":"karl-lagerfeld-beach-residences","name":"Karl Lagerfeld Beach Residences","developer":"Aark Developers","area":"Al Marjan Island, Karl Lagerfeld Beach Residences by Aark","city":"Ras Al Khaimah","lat":25.6754308825,"lng":55.7396903284,"minPriceAed":2800000,"handover":"Q2 2028","imageUrl":"/cdn/projects/karl-lagerfeld-beach-residences/gallery/000.webp"},{"id":"ab71c3fa-5e96-4bc9-922f-d6122857c6a8","slug":"khalid-bin-sultan-city","name":"Khalid Bin Sultan City","developer":"BEEAH Group","area":"Al Rowdat Suburb, Khalid Bin Sultan City","city":"Sharjah","lat":25.2851932,"lng":55.6535882,"minPriceAed":2100000,"handover":"Q3 2029","imageUrl":"/cdn/projects/khalid-bin-sultan-city/gallery/000.webp"},{"id":"26cd6210-cafb-4707-9743-8ceedb2e64c6","slug":"knightsbridge","name":"Knightsbridge","developer":"LEOS International","area":"Mohammed Bin Rashid City, District 11, Knightsbridge","city":"Dubai","lat":25.13081940851,"lng":55.35090009325,"minPriceAed":7900000,"handover":"Q4 2027","imageUrl":"/cdn/projects/knightsbridge/gallery/000.webp"},{"id":"aa5b0d68-32cd-4e9a-8f9c-93b8788778eb","slug":"knightsbridge-2","name":"Knightsbridge Phase 2 By Leos","developer":"LEOS International","area":"Mohammed Bin Rashid City, District 11, Knightsbridge 2","city":"Dubai","lat":25.13038110536,"lng":55.35065445767,"minPriceAed":13800000,"handover":"Q4 2027","imageUrl":"/cdn/projects/knightsbridge-2/gallery/000.webp"},{"id":"15096034-db98-49dc-bf04-0bfb152d7f65","slug":"la-mazzoni","name":"La Mazzoni","developer":"The Luxe Developers","area":"Al Marjan Island, La Mazzoni","city":"Ras Al Khaimah","lat":25.69152489861,"lng":55.73888485867,"minPriceAed":1994675,"handover":"Q4 2028","imageUrl":"/cdn/projects/la-mazzoni/gallery/000.webp"},{"id":"36b46cce-7efd-4eca-92d6-5e11c8c63af8","slug":"la-vera-creek","name":"La Vera Creek","developer":"Ahmadyar Developments","area":"Nadd Al Hammar","city":"Dubai","lat":25.19997,"lng":55.38483,"minPriceAed":665000,"handover":"Q1 2030","imageUrl":"/cdn/projects/la-vera-creek/gallery/000.webp"},{"id":"a121d477-eb99-4560-9f6f-7d47a8537065","slug":"lia-residences","name":"Lia Residences","developer":"Avenew Properties","area":"Dubai Islands","city":"Dubai","lat":25.31873563,"lng":55.30294552,"minPriceAed":2200000,"handover":"Q1 2028","imageUrl":"/cdn/projects/lia-residences/gallery/000.webp"},{"id":"db8e847b-cc0c-4f2d-a981-593df806b2db","slug":"linar-by-alef","name":"Linar by Alef","developer":"Alef Group","area":"Al Mamzar - Sharjah, Linar by Alef","city":"Sharjah","lat":25.3062818,"lng":55.3595041,"minPriceAed":860000,"handover":"Q4 2030","imageUrl":"/cdn/projects/linar-by-alef/gallery/000.webp"},{"id":"0aeea665-213e-4ffa-8a10-72113768b114","slug":"lincoln-star-residence-4","name":"Lincoln Star Residence 4","developer":"Lincoln Star Real Estate Development","area":"Dubai South (Dubai World Central)","city":"Dubai","lat":24.88975851,"lng":55.1453805,"minPriceAed":580000,"handover":"Q2 2028","imageUrl":"/cdn/projects/lincoln-star-residence-4/gallery/000.webp"},{"id":"07fc7287-a2d3-42b4-98d3-a8eb9e60bd21","slug":"liora-residences","name":"Liora Residences","developer":"Jaiedco Development","area":"Dubai Islands, Liora Residence","city":"Dubai","lat":25.289505,"lng":55.301784,"minPriceAed":1950000,"handover":"Q1 2028","imageUrl":"/cdn/projects/liora-residences/hero.webp"},{"id":"a4de6aa9-114e-443b-86b3-d2d76879f7ec","slug":"listone-residence","name":"Listone Residence","developer":"Lion Stone Properties","area":"International City, Listone Residence","city":"Dubai","lat":25.177028,"lng":55.399984,"minPriceAed":540000,"handover":"Q4 2027","imageUrl":"/cdn/projects/listone-residence/gallery/000.webp"},{"id":"9ee90cce-01a0-446c-860d-e94b47a08ddf","slug":"livel-residenza","name":"Livel Residenza","developer":"Vantage Properties","area":"Jumeirah Village Circle, District 17, Livel Residenza","city":"Dubai","lat":25.05997292043,"lng":55.2146129963,"minPriceAed":755566,"handover":"Q4 2026","imageUrl":"/cdn/projects/livel-residenza/gallery/000.webp"},{"id":"32ece7e4-b56a-477b-b049-a36863390027","slug":"luma-park-views","name":"Luma Park Views","developer":"Townx Real Estate Development","area":"Jumeirah Village Circle, District 14, Luma Park Views","city":"Dubai","lat":25.05491412161,"lng":55.20571410656,"minPriceAed":1300000,"handover":"Q2 2025","imageUrl":"/cdn/projects/luma-park-views/gallery/000.webp"},{"id":"9a746c01-d5f3-4db7-81fe-ec629ec99fc1","slug":"lumea-residence","name":"Lumea Residence","developer":"Green Horizon Development","area":"Dubai Islands","city":"Dubai","lat":25.31873563,"lng":55.30294552,"minPriceAed":1589000,"handover":"Q1 2028","imageUrl":"/cdn/projects/lumea-residence/gallery/000.webp"},{"id":"3e091ec9-37cb-4a23-b6e4-ac7cf5b4634f","slug":"luminous-coastal-living","name":"Luminous Coastal Living","developer":"Green Horizon Development","area":"Dubai Islands","city":"Dubai","lat":25.31873563,"lng":55.30294552,"minPriceAed":1622000,"handover":"Q1 2028","imageUrl":"/cdn/projects/luminous-coastal-living/hero.webp"},{"id":"1ebf7e17-3f9f-4dc5-b123-1539ad2480fb","slug":"lunara-the-strand","name":"Lunara The Strand","developer":"RAK Properties","area":"Al Marjan Island, Lunara The Strand","city":"Ras Al Khaimah","lat":25.670349,"lng":55.764751,"minPriceAed":1280000,"handover":"Q1 2029","imageUrl":"/cdn/projects/lunara-the-strand/gallery/000.webp"},{"id":"79ab2e8d-bd0f-4eaa-809a-a483c448608a","slug":"lunaya-terraces","name":"Lunaya Terraces","developer":"Zaya","area":"Sheikh Zayed Road","city":"Dubai","lat":25.19356361,"lng":55.26208945,"minPriceAed":2181069,"imageUrl":"/cdn/projects/lunaya-terraces/gallery/000.webp"},{"id":"7524a2e0-b88e-4a0b-8925-5f942541af1f","slug":"luzora-residences","name":"Luzora Residences","developer":"DIA Development","area":"Dubai Islands, Luzora Residences","city":"Dubai","lat":25.299522,"lng":55.316817,"minPriceAed":1443000,"handover":"Q2 2027","imageUrl":"/cdn/projects/luzora-residences/gallery/000.webp"},{"id":"fe3c848f-e87e-4646-b8ef-a9a66d7d4814","slug":"maak-residence","name":"MAAK Residence","developer":"Maakdream Properties","area":"Dubai South (Dubai World Central), Maak Residence","city":"Dubai","lat":24.9479695,"lng":55.2281678,"minPriceAed":521250,"handover":"Q2 2027","imageUrl":"/cdn/projects/maak-residence/gallery/000.webp"},{"id":"5bd99cfb-48b6-4429-aa9c-e0e6b598e38a","slug":"mag-keturah-reserve","name":"Mag Keturah Reserve","developer":"MAG Property Development","area":"Mohammed Bin Rashid City, MAG City, Keturah Reserve","city":"Dubai","lat":25.14512,"lng":55.284194,"minPriceAed":3800000,"handover":"Q2 2027","imageUrl":"/cdn/projects/mag-keturah-reserve/gallery/000.webp"},{"id":"c96c342c-069a-4f6b-9a5e-472817391b12","slug":"maison-elysee-2","name":"Maison Elysee 2","developer":"Pantheon Development","area":"Jumeirah Village Circle, District 12, Maison Elysee, Maison Elysee 2","city":"Dubai","lat":25.050915,"lng":55.215839,"minPriceAed":774900,"handover":"Q1 2027","imageUrl":"/cdn/projects/maison-elysee-2/gallery/000.webp"},{"id":"529488b8-e139-4d9a-aa80-54ba391e640f","slug":"mangrove","name":"Mangrove By Emaar","developer":"Emaar Properties","area":"Dubai Creek Harbour (The Lagoons), Creek Beach, Mangrove at Creek Beach","city":"Dubai","lat":25.20306564825,"lng":55.3518392011,"minPriceAed":4109888,"handover":"Q3 2026","imageUrl":"/cdn/projects/mangrove/hero.webp"},{"id":"7662fa79-753e-4dcd-be49-1dbcc3d1a481","slug":"mansory-residences","name":"Mansory Residences","developer":"Amaal Emirates","area":"Meydan","city":"Dubai","lat":25.15790459,"lng":55.30040604,"minPriceAed":2053888,"handover":"Q4 2028","imageUrl":"/cdn/projects/mansory-residences/gallery/000.webp"},{"id":"00b18006-80de-4d51-bbc1-560b18ab5b3f","slug":"manta-bay-phase-2","name":"Manta Bay Phase 2","developer":"Major Developers","area":"Al Marjan Island, Manta Bay","city":"Ras Al Khaimah","lat":25.69113102627,"lng":55.73657603035,"minPriceAed":1200000,"handover":"Q2 2027","imageUrl":"/cdn/projects/manta-bay-phase-2/gallery/002.webp"},{"id":"dbb3e98a-a16e-4c5f-a54b-79a75c14f6c0","slug":"maravea-residences","name":"Maravea Residences","developer":"Enzo Developers","area":"Dubai Islands, Maravea Residences","city":"Dubai","lat":25.2905444724,"lng":55.3065501126,"minPriceAed":1790000,"handover":"Q2 2028","imageUrl":"/cdn/projects/maravea-residences/hero.webp"},{"id":"2fb581ab-eaeb-43ea-a33f-76555a5674d1","slug":"marriott-residences","name":"Marriott Residences By Saba","developer":"Saba Properties","area":"Jumeirah Lake Towers, Marriott Residences JLT","city":"Dubai","lat":25.066732,"lng":55.143253,"minPriceAed":2103000,"handover":"Q2 2027","imageUrl":"/cdn/projects/marriott-residences/gallery/000.webp"},{"id":"d03f650c-0479-4a2e-a73e-a4d6798e8249","slug":"mas-barsha-residency","name":"Mas Barsha Residency","developer":"Revi Realty","area":"Al Barsha, Al Barsha 1, Mas Barsha Residency","city":"Dubai","lat":25.1049251423,"lng":55.1825913178,"minPriceAed":1800000,"handover":"Q4 2026","imageUrl":"/cdn/projects/mas-barsha-residency/hero.webp"},{"id":"c319ed08-9e70-487a-b630-8efabb35ec5e","slug":"mayas-sea-view","name":"Mayas Sea View","developer":"Sama Ezdan Development","area":"Dubai Islands, Mayas Sea View","city":"Dubai","lat":25.2997342956,"lng":55.3137657865,"minPriceAed":2233000,"handover":"Q4 2026","imageUrl":"/cdn/projects/mayas-sea-view/gallery/000.webp"},{"id":"b7f78289-859d-4f53-9ff1-6fbce5b8d8cd","slug":"maybach-6","name":"Maybach 6","developer":"Binghatti Developers","area":"Nad Al Sheba, Nad Al Sheba 1, Maybach Six","city":"Dubai","lat":25.165394,"lng":55.324888,"minPriceAed":1250000,"handover":"Q3 2027","imageUrl":"/cdn/projects/maybach-6/gallery/000.webp"},{"id":"5d71ef67-f66d-4d28-be3f-4041ef52213c","slug":"binghatti-maybach","name":"Maybach Ultimate Luxury","developer":"Binghatti Developers","area":"Nad Al Sheba, Nad Al Sheba 1, Maybach Ultimate Luxury","city":"Dubai","lat":25.164496,"lng":55.325744,"minPriceAed":1250000,"handover":"Q3 2027","imageUrl":"/cdn/projects/binghatti-maybach/gallery/000.webp"},{"id":"5e1308b5-bade-4d99-91d8-7af415c5a998","slug":"mercedes-benz-amg-vision","name":"Mercedes Benz AMG Vision","developer":"Binghatti Developers","area":"Nad Al Sheba, Nad Al Sheba 1, Mercedes Benz Places by Binghatti","city":"Dubai","lat":25.1635033889,"lng":55.3263925092,"minPriceAed":1250000,"handover":"Q2 2028","imageUrl":"/cdn/projects/mercedes-benz-amg-vision/gallery/000.webp"},{"id":"d1fabb38-a1a8-4ac3-9417-52900f9d9f10","slug":"mercedes-benz-places-by-binghatti","name":"Mercedes Benz Places | Binghatti City","developer":"Binghatti Developers","area":"Nad Al Sheba, Nad Al Sheba 1, Mercedes Benz Places by Binghatti","city":"Dubai","lat":25.1635033889,"lng":55.3263925092,"minPriceAed":1250000,"handover":"Q1 2028","imageUrl":"/cdn/projects/mercedes-benz-places-by-binghatti/gallery/000.webp"},{"id":"7e33b935-af26-4335-900a-0f3a31fdf34d","slug":"meriden-beach","name":"Meriden Beach","developer":"Green Horizon Development","area":"Dubai Islands, Meriden Beach Residences","city":"Dubai","lat":25.291706,"lng":55.30805,"minPriceAed":2390000,"handover":"Q4 2027","imageUrl":"/cdn/projects/meriden-beach/gallery/000.webp"},{"id":"e72f6659-8d6a-4593-9a0a-8827e5965899","slug":"meriva-gardens","name":"Meriva Gardens","developer":"Ellington","area":"Dubai Islands","city":"Dubai","lat":25.31873563,"lng":55.30294552,"minPriceAed":2700000,"handover":"Q2 2030","imageUrl":"/cdn/projects/meriva-gardens/gallery/000.webp"},{"id":"73f36f14-8cab-4de4-aaa8-0c0d77fc0d1a","slug":"meriva-signature","name":"Meriva Signature","developer":"Ellington","area":"Dubai Islands, The Meriva Collection, Meriva Signature","city":"Dubai","lat":25.313279,"lng":55.320534,"minPriceAed":2700000,"handover":"Q2 2030","imageUrl":"/cdn/projects/meriva-signature/gallery/000.webp"},{"id":"a87c283a-af05-48cf-b72b-bd1816523f0c","slug":"meriva-sunset","name":"Meriva Sunset","developer":"Ellington","area":"Dubai Islands, The Meriva Collection, Meriva Sunset","city":"Dubai","lat":25.3134559,"lng":55.3205171,"minPriceAed":2700000,"handover":"Q2 2030","imageUrl":"/cdn/projects/meriva-sunset/gallery/000.webp"},{"id":"e64ac302-5401-46e2-becb-d2543376346b","slug":"miami-beach-residence","name":"Miami Beach Residence","developer":"MGS Development","area":"Dubai Islands, Miami Beach Residence","city":"Dubai","lat":25.32047683075,"lng":55.29308183068,"minPriceAed":1485000,"handover":"Q1 2025","imageUrl":"/cdn/projects/miami-beach-residence/hero.webp"},{"id":"667ec478-d429-4842-81cd-c3710567d95f","slug":"milos-by-karma","name":"Milos by Karma","developer":"Karma Development","area":"Dubai Land Residence Complex, Milos by Karma","city":"Dubai","lat":25.08367782532,"lng":55.38356111688,"minPriceAed":807642,"handover":"Q2 2027","imageUrl":"/cdn/projects/milos-by-karma/gallery/000.webp"},{"id":"77488f53-d8ae-40b5-a1cb-cc676a9c251b","slug":"mint","name":"Mint","developer":"Aldar Properties PJSC","area":"Dubai Land, Haven By Aldar, Verdes, Mint","city":"Dubai","lat":25.08171228285,"lng":55.371762,"minPriceAed":990000,"handover":"Q2 2028","imageUrl":"/cdn/projects/mint/gallery/000.webp"},{"id":"e95ee776-353e-46b6-8fa2-3c53c0301fe9","slug":"miraggio","name":"Miraggio","developer":"The Source of Fate Real Estate Development","area":"Al Marjan Island, Miraggio","city":"Ras Al Khaimah","lat":25.6834100846,"lng":55.7376857267,"minPriceAed":1200000,"handover":"Q4 2028","imageUrl":"/cdn/projects/miraggio/gallery/000.webp"},{"id":"5a664333-28bc-45b7-ab26-62a6fe93bba0","slug":"mirasol-phase-2-by-rak-properties","name":"Mirasol Phase 2 By Rak Properties","developer":"RAK Properties","area":"Mina Al Arab, Hayat Island, Mirasol II","city":"Ras Al Khaimah","lat":25.718668,"lng":55.83837,"minPriceAed":861000,"handover":"Q3 2028","imageUrl":"/cdn/projects/mirasol-phase-2-by-rak-properties/gallery/000.webp"},{"id":"8b49669d-7c55-46f5-a9b8-168467d06b65","slug":"mirdad","name":"Mirdad","developer":"Union Properties P.J.S.C","area":"Motor City, Mirdad","city":"Dubai","lat":25.0470923,"lng":55.2326807,"minPriceAed":763000,"handover":"Q4 2028","imageUrl":"/cdn/projects/mirdad/gallery/000.webp"},{"id":"3ed67bf7-558c-4bd7-9a7b-6235a87d5db8","slug":"modo","name":"Modo at Avenew 88","developer":"Avenew Properties","area":"Dubai South (Dubai World Central), Residential District, Avenew 888, Modo at Avenew 888","city":"Dubai","lat":24.943904,"lng":55.218719,"minPriceAed":800000,"handover":"Q1 2028","imageUrl":"/cdn/projects/modo/gallery/000.webp"},{"id":"028efdc8-16c1-47d6-a57c-2d66c4f53b5d","slug":"montage","name":"Montage","developer":"Keymavens","area":"Al Jaddaf, Montage","city":"Dubai","lat":25.2161812373,"lng":55.32945088247,"minPriceAed":1100000,"handover":"Q3 2027","imageUrl":"/cdn/projects/montage/gallery/000.webp"},{"id":"98694034-14f1-40ca-b3f3-99d779b293fd","slug":"montiva","name":"Montiva at Emaar Green Gate","developer":"Emaar Properties","area":"Dubai Creek Harbour (The Lagoons), Montiva Tower","city":"Dubai","lat":25.2037700534,"lng":55.359870627,"minPriceAed":1916888,"handover":"Q3 2029","imageUrl":"/cdn/projects/montiva/gallery/000.webp"},{"id":"0f4da80f-9d7e-4645-8ae1-53069c38bc68","slug":"montura-2-at-grand-polo","name":"Montura 2 at Grand Polo","developer":"Emaar Properties","area":"Dubai Investment Park (DIP), Dubai Investment Park 2 (DIP 2), Grand Polo Club and Resort, Montura 2","city":"Dubai","lat":24.9621914792,"lng":55.2305156614,"minPriceAed":5510000,"handover":"Q2 2029","imageUrl":"/cdn/projects/montura-2-at-grand-polo/hero.webp"},{"id":"3ae282c1-a1b9-4aaa-83fc-a46043799221","slug":"montura-3-at-grand-polo","name":"Montura 3 at Grand Polo","developer":"Emaar Properties","area":"Dubai Investment Park (DIP), Dubai Investment Park 2 (DIP 2), Grand Polo Club and Resort, Montura 3","city":"Dubai","lat":24.970757586,"lng":55.2273771534,"minPriceAed":7070000,"handover":"Q2 2029","imageUrl":"/cdn/projects/montura-3-at-grand-polo/gallery/000.webp"},{"id":"b57484dd-bbdd-4789-89ff-ec33d61429cc","slug":"moonstone-residences-interiors-by-missoni","name":"Moonstone Residences Interiors by Missoni","developer":"Durar Group","area":"Al Marjan Island, Moonstone Residences Interiors","city":"Ras Al Khaimah","lat":25.674865,"lng":55.738782,"minPriceAed":1288888,"handover":"Q4 2026","imageUrl":"/cdn/projects/moonstone-residences-interiors-by-missoni/gallery/000.webp"},{"id":"c292bbc1-aadd-43b5-a6cc-676320b5d8fc","slug":"moss","name":"Moss","developer":"Aldar Properties PJSC","area":"Dubai Land, Haven By Aldar, Verdes, Moss","city":"Dubai","lat":25.08173178395,"lng":55.37841266638,"minPriceAed":990000,"handover":"Q2 2028","imageUrl":"/cdn/projects/moss/hero.webp"},{"id":"4b41814c-321e-4efe-8723-fdf7caaa947c","slug":"mr-c-residences-downtown","name":"Mr C Residences Downtown","developer":"Alta Real Estate Development","area":"Al Wasl, Mr. C Residences Downtown","city":"Dubai","lat":25.2009000628,"lng":55.26685321633,"minPriceAed":8100000,"handover":"Q1 2027","imageUrl":"/cdn/projects/mr-c-residences-downtown/hero.webp"},{"id":"345272c0-a266-435e-badf-6a1b649bd9ef","slug":"mudon-central-park","name":"Mudon Central Park","developer":"Dubai Properties","area":"Mudon, Mudon Central Park","city":"Dubai","lat":25.02447132078,"lng":55.26620927116,"minPriceAed":817000,"handover":"Q1 2026","imageUrl":"/cdn/projects/mudon-central-park/gallery/000.webp"},{"id":"db4cc338-f365-4534-af90-251ed6865162","slug":"nama-2","name":"Nama Phase 2 By Alef Group","developer":"Alef Group","area":"Muwaileh, Al Mamsha","city":"Sharjah","lat":25.310526,"lng":55.46319,"minPriceAed":729000,"handover":"Q2 2028","imageUrl":"/cdn/projects/nama-2/gallery/000.webp"},{"id":"8d6a85f8-54c5-41b8-993d-a01995384e27","slug":"nama-phase-5-by-alef","name":"Nama Phase 5 By Alef","developer":"Alef Group","area":"Muwaileh, Al Mamsha","city":"Sharjah","lat":25.310526,"lng":55.46319,"minPriceAed":709000,"handover":"Q3 2028","imageUrl":"/cdn/projects/nama-phase-5-by-alef/gallery/000.webp"},{"id":"989861b8-0c70-4ffe-9a87-64efe3459c52","slug":"nama-phase-6-by-alef-group","name":"Nama Phase 6 By Alef Group","developer":"Alef Group","area":"Muwaileh, Al Mamsha","city":"Sharjah","lat":25.310526,"lng":55.46319,"minPriceAed":729000,"handover":"Q4 2028","imageUrl":"/cdn/projects/nama-phase-6-by-alef-group/gallery/000.webp"},{"id":"8ba54b0d-a0b8-45c0-a8e1-b5f833bd2073","slug":"nasim-al-bahr-residences","name":"Nasim Al Bahr Residences","developer":"Abu Dhabi National Hotels","area":"Al Marjan Island, Nasim Al Bahr Residences","city":"Ras Al Khaimah","lat":25.693079,"lng":55.740031,"minPriceAed":3513000,"handover":"Q1 2028","imageUrl":"/cdn/projects/nasim-al-bahr-residences/gallery/013.webp"},{"id":"2bf030aa-4787-4eaa-9c41-bf6bfa2ec38d","slug":"stamn-nautis-residences","name":"Nautis Residences","developer":"Stamn Real Estate Development","area":"Dubai Islands, Nautis Residences","city":"Dubai","lat":25.292691,"lng":55.302384,"minPriceAed":1780000,"handover":"Q4 2027","imageUrl":"/cdn/projects/stamn-nautis-residences/gallery/000.webp"},{"id":"95ff3fec-77f1-49ae-ac87-7b0172dd56c9","slug":"nawayef-east-a","name":"Nawayef East A","developer":"Modon Properties","area":"Al Hudayriat Island, Nawayef East","city":"Abu Dhabi","lat":24.40961413451,"lng":54.38159958827,"minPriceAed":6600000,"handover":"Q1 2028","imageUrl":"/cdn/projects/nawayef-east-a/gallery/000.webp"},{"id":"d71b3c87-bab7-4747-b8dc-ee2f409a8665","slug":"nawayef-east-b","name":"Nawayef East B","developer":"Modon Properties","area":"Al Hudayriat Island, Nawayef East","city":"Abu Dhabi","lat":24.40961413451,"lng":54.38159958827,"minPriceAed":6600000,"handover":"Q3 2028","imageUrl":"/cdn/projects/nawayef-east-b/gallery/000.webp"},{"id":"c5e06a77-607f-4a99-8397-ef0024502f9a","slug":"nawayef-west-heights","name":"Nawayef West Heights","developer":"Modon Properties","area":"Al Hudayriat Island, Nawayef West","city":"Abu Dhabi","lat":24.41701281115,"lng":54.36357545057,"minPriceAed":20000000,"handover":"Q4 2026","imageUrl":"/cdn/projects/nawayef-west-heights/gallery/000.webp"},{"id":"3bc79d88-4c01-4e2c-87da-514a603b97aa","slug":"naya-2","name":"Naya Phase 2 By Nakheel","developer":"Nakheel","area":"Mohammed Bin Rashid City, District One, Naya at District One, Naya 2","city":"Dubai","lat":25.15708311164,"lng":55.28706345767,"minPriceAed":1700000,"handover":"Q3 2028","imageUrl":"/cdn/projects/naya-2/gallery/000.webp"},{"id":"1a8bf5c9-1d0d-470c-a206-da49300247ad","slug":"naya-3","name":"Naya Phase 3 By Nakheel","developer":"Nakheel","area":"Mohammed Bin Rashid City, District One, Naya at District One, Naya 3","city":"Dubai","lat":25.15739383354,"lng":55.28707436442,"minPriceAed":1373020,"handover":"Q3 2027","imageUrl":"/cdn/projects/naya-3/gallery/000.webp"},{"id":"ae4c23b7-ae93-4f5b-977e-8219e2b30db6","slug":"new-project-by-empire-developments","name":"New Project by Empire Developments","developer":"Empire Developments","area":"Jumeirah Village Circle","city":"Dubai","lat":25.05638764826,"lng":55.20812137772,"minPriceAed":1104777,"handover":"Q4 2028","imageUrl":"/cdn/projects/new-project-by-empire-developments/gallery/000.webp"},{"id":"653489f0-eb66-47fb-b8d1-cf9e5c539225","slug":"next-coral","name":"Next Coral","developer":"Next Group","area":"Dubai Islands, Next Coral","city":"Dubai","lat":25.30116728733,"lng":55.31717445767,"minPriceAed":1820862,"handover":"Q4 2027","imageUrl":"/cdn/projects/next-coral/gallery/000.webp"},{"id":"c7207651-5497-4aa7-a7d4-ed6374d84bd3","slug":"nh-collection","name":"NH Collection","developer":"RRS International Development","area":"Al Marjan Island, NH Collection Ras Al Khaimah","city":"Ras Al Khaimah","lat":25.6880026981,"lng":55.7356724586,"minPriceAed":1799500,"handover":"Q3 2027","imageUrl":"/cdn/projects/nh-collection/gallery/000.webp"},{"id":"7f416a09-bc88-4338-b45a-aee890b1d9d7","slug":"nirvana-residence","name":"Nirvana Residence","developer":"Meraki","area":"Dubai Production City (IMPZ), Nirvana Residences I","city":"Dubai","lat":25.037895,"lng":55.201487,"minPriceAed":650000,"handover":"Q4 2028","imageUrl":"/cdn/projects/nirvana-residence/gallery/000.webp"},{"id":"46c641e5-097b-468e-8037-7dfa87d0f362","slug":"noble-crest","name":"Noble Crest","developer":"Almahamid Development Real Estate","area":"Jumeirah Village Circle","city":"Dubai","lat":25.05638764826,"lng":55.20812137772,"minPriceAed":960000,"handover":"Q1 2028","imageUrl":"/cdn/projects/noble-crest/gallery/000.webp"},{"id":"91f91db5-a8e7-4998-8e07-e48c14186616","slug":"nobu-residences","name":"Nobu Hotel & Residences Al Marjan Island","developer":"H&H Development","area":"Al Marjan Island, Nobu Residence","city":"Ras Al Khaimah","lat":25.68005319841,"lng":55.74802465999,"minPriceAed":4000000,"handover":"Q1 2028","imageUrl":"/cdn/projects/nobu-residences/gallery/000.webp"},{"id":"a4e61055-2a03-4311-8cca-d8c6a12ac0e5","slug":"norah-residence","name":"Norah Residence","developer":"Al Tareq Star Development","area":"Jumeirah Village Circle, District 14, Norah Residence","city":"Dubai","lat":25.059304,"lng":55.198107,"minPriceAed":650000,"handover":"Q2 2027","imageUrl":"/cdn/projects/norah-residence/gallery/000.webp"},{"id":"09946ca1-ba7b-4562-b5db-038a8c17bedf","slug":"nova-tower","name":"Nova Tower","developer":"Al Ansari Real Estate","area":"Dubai Science Park, Nova Tower","city":"Dubai","lat":25.0716101272,"lng":55.2468966927,"minPriceAed":1375000,"handover":"Q2 2027","imageUrl":"/cdn/projects/nova-tower/gallery/000.webp"},{"id":"0dd0a22c-3206-452f-9e8d-d073d55e749e","slug":"noya-5","name":"Noya Phase 5 by Aldar","developer":"Aldar Properties PJSC","area":"Yas Island, Noya","city":"Abu Dhabi","lat":24.495873,"lng":54.603564,"minPriceAed":2100000,"imageUrl":"/cdn/projects/noya-5/gallery/000.webp"},{"id":"7163daec-6a3d-4d88-9a96-827f61a1c4b4","slug":"numa-reserve","name":"Numa Reserve","developer":"Mirfa IBC Developers","area":"Mohammed Bin Rashid City, District 11, Numa Reserve","city":"Dubai","lat":25.1263053594,"lng":55.3458159866,"minPriceAed":12000000,"handover":"Q4 2026","imageUrl":"/cdn/projects/numa-reserve/gallery/000.webp"},{"id":"5afa1310-b270-4a83-bb6a-cf348ca25589","slug":"nura-residences","name":"Nura","developer":"RAK Properties","area":"Mina Al Arab, Nura","city":"Ras Al Khaimah","lat":25.716440898,"lng":55.8338092388,"minPriceAed":800000,"handover":"Q1 2029","imageUrl":"/cdn/projects/nura-residences/gallery/000.webp"},{"id":"0a65b5d4-1d09-4b6a-9eac-564bfaf4879c","slug":"oasis","name":"Oasis","developer":"Aldar Properties PJSC","area":"Dubai Land, Haven By Aldar","city":"Dubai","lat":25.08103981508,"lng":55.37668514016,"minPriceAed":8500000,"handover":"Q4 2027","imageUrl":"/cdn/projects/oasis/gallery/000.webp"},{"id":"586d92ad-eed6-4b9e-baa4-a58fe7434a4b","slug":"oasis-residences","name":"Oasis Residences","developer":"Al Helal Al Zahaby Real Estate","area":"Dubai South (Dubai World Central), Residential District, Oasis Residences","city":"Dubai","lat":24.8891507974,"lng":55.1345105401,"minPriceAed":625000,"handover":"Q3 2027","imageUrl":"/cdn/projects/oasis-residences/gallery/000.webp"},{"id":"3b22fc7e-c241-4ae7-8485-04de7a26a99c","slug":"oceans-bay-by-samana","name":"Ocean Bay by Samana","developer":"Samana Developers","area":"Dubai Islands, Samana Ocean Bay","city":"Dubai","lat":25.2976632273,"lng":55.3204805659,"minPriceAed":2269866,"handover":"Q2 2028","imageUrl":"/cdn/projects/oceans-bay-by-samana/gallery/000.webp"},{"id":"47caec93-7077-4423-993b-61c3f3b52ad4","slug":"ocean-walk","name":"Ocean Walk","developer":"Wellington Developments","area":"Dubai Islands, Wellington Ocean Walk","city":"Dubai","lat":25.3008939879,"lng":55.3156104577,"minPriceAed":1700000,"handover":"Q4 2027","imageUrl":"/cdn/projects/ocean-walk/gallery/000.webp"},{"id":"4f1e82c3-f080-4af2-9330-b0436f1b81d8","slug":"oceana","name":"Oceana","developer":"Reportage Real Estate","area":"Fujairah","city":"Fujairah","lat":25.24114601,"lng":56.32062398,"minPriceAed":526250,"handover":"Q2 2029","imageUrl":"/cdn/projects/oceana/gallery/000.webp"},{"id":"de6639cb-ecd0-4e4a-b0db-f6eab27330be","slug":"octa-isle-interiors","name":"Octa Isle Interiors","developer":"OCTA Properties","area":"Dubai Islands, Octa Isle Interiors","city":"Dubai","lat":25.2963119009,"lng":55.3119647288,"minPriceAed":2370888,"handover":"Q3 2027","imageUrl":"/cdn/projects/octa-isle-interiors/gallery/000.webp"},{"id":"8e9d2b06-4194-4ab9-9250-d685d59bf3e4","slug":"olfah-by-alef","name":"Olfah","developer":"Alef Group","area":"Muwaileh Commercial, Olfah","city":"Sharjah","lat":25.2838698905,"lng":55.4537296503,"minPriceAed":839000,"handover":"Q1 2029","imageUrl":"/cdn/projects/olfah-by-alef/gallery/000.webp"},{"id":"135af1a7-a94d-4279-b3b4-e784fde98053","slug":"omoria-resort-residences","name":"Omoria Resort Residences","developer":"Innovate Development","area":"Dubai Islands, Omoria Hotel Residences","city":"Dubai","lat":25.2997719918,"lng":55.2952486051,"minPriceAed":5600000,"handover":"Q3 2028","imageUrl":"/cdn/projects/omoria-resort-residences/gallery/000.webp"},{"id":"84068d83-9a4d-473d-9641-cbd18c11fd15","slug":"one-central","name":"One Central","developer":"Pantheon Development","area":"RAK Central, One Central","city":"Ras Al Khaimah","lat":25.69212085748,"lng":55.79764008522,"minPriceAed":699900,"handover":"Q4 2027","imageUrl":"/cdn/projects/one-central/gallery/000.webp"},