{"scrapedAt":"2026-07-12T03:55:13.159Z","projects":[{"id":"fd3fa686-97cf-40bf-acd7-9ad9b6875de7","slug":"105-residences","name":"105 Residences","developer":"Kamdar Developments","area":"Jumeirah Village Circle, District 13, 105 Residences","city":"Dubai","lat":25.04981783928,"lng":55.20901801946,"minPriceAed":1275888,"handover":"Q2 2027","imageUrl":"/cdn/projects/105-residences/gallery/000.webp"},{"id":"61a78e63-ebee-4648-aa25-632f5b88f308","slug":"113-residences","name":"113 Residences","developer":"Iman Developers","area":"Al Sufouh","city":"Dubai","lat":25.11894,"lng":55.18355,"minPriceAed":1800000,"handover":"Q2 2029","imageUrl":"/cdn/projects/113-residences/gallery/000.webp"},{"id":"5ac4584e-dead-4d7b-b9b6-4e2671fda73f","slug":"1wood-residence-phase-2-by-object-1","name":"1WOOD Residence Phase 2 By Object 1","developer":"Object 1","area":"Jumeirah Village Circle, District 14, 1WOOD Residence","city":"Dubai","lat":25.04867090812,"lng":55.20570879893,"minPriceAed":788117,"handover":"Q4 2027","imageUrl":"/cdn/projects/1wood-residence-phase-2-by-object-1/gallery/000.webp"},{"id":"0a9b9394-bc95-4f30-a15a-0aefc97c31eb","slug":"311-boulevard","name":"311 Boulevard","developer":"Bam Eskan Real Estate","area":"Jumeirah Village Circle, District 13, 311 Boulevard","city":"Dubai","lat":25.05211517676,"lng":55.21293209325,"minPriceAed":750000,"handover":"Q4 2027","imageUrl":"/cdn/projects/311-boulevard/gallery/000.webp"},{"id":"6e045570-f8bd-49e5-8ad9-57b3118e439b","slug":"a1la-residence","name":"A1LA Residence","developer":"Object 1","area":"Al Reem Island, A1LA Residence","city":"Abu Dhabi","lat":24.4893303967,"lng":54.4092790451,"minPriceAed":1670000,"handover":"Q4 2028","imageUrl":"https://new-projects-media.propertyfinder.com/project/6e045570-f8bd-49e5-8ad9-57b3118e439b/gallery/image/-_9b65MiwFt3O8puZeUPU72CcgyLjl1VGuNicUDf_30=/original.webp"},{"id":"8047f33a-ab77-4fce-9e0c-8a807f34a149","slug":"ab-cleo","name":"AB Cleo","developer":"AB Developers","area":"Jebel Ali","city":"Dubai","lat":25.034304,"lng":55.115443,"minPriceAed":708000,"handover":"Q1 2027","imageUrl":"/cdn/projects/ab-cleo/gallery/000.webp"},{"id":"51b62002-847b-4e7d-abcb-b1f938a8d8ac","slug":"address-grand-downtown","name":"Address Grand Downtown","developer":"Nshama","area":"Downtown Dubai, Address Grand Downtown","city":"Dubai","lat":25.19643232778,"lng":55.26695138075,"minPriceAed":11000000,"handover":"Q2 2028","imageUrl":"https://new-projects-media.propertyfinder.com/project/51b62002-847b-4e7d-abcb-b1f938a8d8ac/gallery/image/uDLfuJar7NlGrXjuadlj1khyNzwWoiI-81BgcwnILa0=/original.webp"},{"id":"113019e8-339b-4f37-b7c7-91bbd64bf24b","slug":"address-harbour-point","name":"Address Harbour Point","developer":"Emaar Properties","area":"Dubai Creek Harbour (The Lagoons), Address Harbour Point","city":"Dubai","lat":25.20814453597,"lng":55.34289836884,"minPriceAed":2465574,"handover":"Q1 2023","imageUrl":"/cdn/projects/address-harbour-point/hero.jpg"},{"id":"8a70da4a-e504-4e95-a41d-5b2d01e8329a","slug":"address-hillcrest","name":"Address Hillcrest","developer":"Emaar Properties","area":"Dubai Hills Estate, Address Hillcrest","city":"Dubai","lat":25.107281,"lng":55.248528,"minPriceAed":21950888,"handover":"Q2 2026","imageUrl":"/cdn/projects/address-hillcrest/hero.jpg"},{"id":"e85a1977-f5ac-4bb0-9002-e288f970f408","slug":"address-residences","name":"Address Residences Al Marjan Island","developer":"Emaar Properties","area":"Al Marjan Island, Address Residences","city":"Ras Al Khaimah","lat":25.69322429607,"lng":55.73509179652,"minPriceAed":1800000,"handover":"Q1 2028","imageUrl":"https://new-projects-media.propertyfinder.com/project/e85a1977-f5ac-4bb0-9002-e288f970f408/gallery/image/Jd5DRoMeYqEZtAfMO1S5PC9ETuQRtUdXaS1U_qql_-Y=/original.webp"},{"id":"a59045e7-d113-41e1-8fff-e1a9414eeea7","slug":"address-residences-at-dubai-creek-harbour","name":"Address Residences at Dubai Creek Harbour","developer":"Emaar Properties","area":"Dubai Creek Harbour (The Lagoons), Address Residences Dubai Creek Harbour","city":"Dubai","lat":25.20731445617,"lng":55.35000317169,"minPriceAed":2689888,"handover":"Q1 2029","imageUrl":"/cdn/projects/address-residences-at-dubai-creek-harbour/hero.jpg"},{"id":"fa1efcec-bf12-4da1-915c-2640f4832bc6","slug":"address-residences-at-dubai-hills-estate","name":"Address Residences at Dubai Hills Estate","developer":"Emaar Properties","area":"Dubai Hills Estate, Address Residences Dubai Hills Estate","city":"Dubai","lat":25.1047881568,"lng":55.24104952812,"minPriceAed":1930000,"handover":"Q1 2029"},{"id":"3989c393-ca92-4636-90b1-6115aca43d41","slug":"address-residences-the-bay","name":"Address Residences The Bay","developer":"Emaar Properties","area":"Dubai Harbour, Emaar Beachfront, Address Residences The Bay","city":"Dubai","lat":25.1017158984,"lng":55.142595,"minPriceAed":2900000,"handover":"Q4 2026","imageUrl":"/cdn/projects/address-residences-the-bay/hero.jpg"},{"id":"72e308d3-e05b-492f-830d-6f7eafaccf39","slug":"address-residences-zabeel","name":"Address Residences Zabeel","developer":"Emaar Properties","area":"Zabeel, Zabeel 1, Address Residences Zabeel","city":"Dubai","lat":25.2257422206,"lng":55.29422163963,"minPriceAed":2683888,"handover":"Q3 2029","imageUrl":"/cdn/projects/address-residences-zabeel/hero.png"},{"id":"4e4dcf04-e052-47a8-a700-3b4fee7500e1","slug":"address-the-bay","name":"Address The Bay","developer":"Emaar Properties","area":"Dubai Harbour, Emaar Beachfront, Address The Bay","city":"Dubai","lat":25.102626,"lng":55.143543,"minPriceAed":3320000,"handover":"Q4 2026","imageUrl":"/cdn/projects/bayview/hero.webp"},{"id":"7d18a17c-b5c4-47ce-b499-4d63d1774a7a","slug":"address-villas-tierra","name":"Address Villas Tierra","developer":"Emaar Properties","area":"The Oasis by Emaar, Address Villas - Tierra","city":"Dubai","lat":24.99773833604,"lng":55.22497555846,"minPriceAed":13160000,"handover":"Q2 2029","imageUrl":"/cdn/projects/address-villas-tierra/hero.jpg"},{"id":"6f4903d4-b03f-483c-b878-2afdd963642f","slug":"adeba-azizi","name":"Adeba Azizi","developer":"Azizi Developments","area":"Al Jaddaf, Dubai Healthcare City 2, Adeba Azizi","city":"Dubai","lat":25.09872986276,"lng":55.49859406641,"minPriceAed":1056465,"handover":"Q4 2025","imageUrl":"https://new-projects-media.propertyfinder.com/project/6f4903d4-b03f-483c-b878-2afdd963642f/gallery/image/O0T_tBsDXRS_8_13D8Y_FhDBSr034gy8hMiCHXFq5AA=/original.webp"},{"id":"95ca1d31-33be-4dc8-8537-df1956db0f43","slug":"aelin","name":"Aelin","developer":"Zoya Developments","area":"Dubai Land Residence Complex","city":"Dubai","lat":25.09131078,"lng":55.37827688,"minPriceAed":750000,"handover":"Q3 2028","imageUrl":"/cdn/projects/aelin/gallery/000.webp"},{"id":"bc2d6c09-5be4-446f-8663-7eb825f1b8f9","slug":"aeon","name":"Aeon","developer":"Emaar Properties","area":"Dubai Creek Harbour (The Lagoons), Aeon","city":"Dubai","lat":25.20658573907,"lng":55.35108486928,"minPriceAed":1710000,"handover":"Q2 2028","imageUrl":"/cdn/projects/aeon/hero.jpg"},{"id":"90ced2b6-b2ed-40fe-9c8a-d1e1ba79097f","slug":"akala-hotel-and-residences","name":"Akala Hotel & Residences","developer":"ARADA","area":"Zabeel, Zabeel 2, Akala Hotel & Residences","city":"Dubai","lat":25.2066486311,"lng":55.2770349153,"minPriceAed":3905000,"handover":"Q4 2029","imageUrl":"https://new-projects-media.propertyfinder.com/project/90ced2b6-b2ed-40fe-9c8a-d1e1ba79097f/gallery/image/6Kig6vC6T2ktc3AWe66dItkU0_oqKBRS-RGD5ZQId5A=/medium.webp"},{"id":"6984715a-248d-4e6a-865c-1070e492eb96","slug":"al-aamra-tower","name":"Al Aamra Tower 1","developer":"GJ Real Estate","area":"Al Amerah, Al Aamra Tower","city":"Ajman","lat":25.3852017,"lng":55.577613,"minPriceAed":564000,"handover":"Q4 2027","imageUrl":"/cdn/projects/al-aamra-tower/gallery/000.webp"},{"id":"9ff74be7-1aff-4440-83ad-a0395f33a1f1","slug":"al-deem-townhomes","name":"Al Deem Townhomes","developer":"Aldar Properties PJSC","area":"Yas Island","city":"Abu Dhabi","lat":24.49533081526,"lng":54.60627974008,"minPriceAed":3100000,"handover":"Q4 2027","imageUrl":"https://new-projects-media.propertyfinder.com/project/9ff74be7-1aff-4440-83ad-a0395f33a1f1/gallery/image/abNZauaru6vzllqwtX0WiFqeaZBSl2C2xNVZFyhjtb0=/original.webp"},{"id":"7a1449b3-4e66-4886-be03-cf14e77c8e2c","slug":"al-ghadeer-2","name":"Al Ghadeer 2 By Aldar","developer":"Aldar Properties PJSC","area":"Al Ghadeer, Al Ghadeer 2","city":"Abu Dhabi","lat":24.838091,"lng":55.017587,"minPriceAed":501740,"imageUrl":"https://new-projects-media.propertyfinder.com/project/7a1449b3-4e66-4886-be03-cf14e77c8e2c/gallery/image/qTmlac1kf0iJ8cGyWuYVQaoeIwP-6DlJ9FpeKsz4N00=/original.webp"},{"id":"b119ea64-9d3a-402b-ad2a-985500a7ad9f","slug":"al-ghadeer-gardens","name":"Al Ghadeer Gardens","developer":"Aldar Properties PJSC","area":"Al Ghadeer","city":"Abu Dhabi","lat":24.8426667,"lng":55.0275697,"minPriceAed":1700000,"handover":"Q4 2029","imageUrl":"/cdn/projects/al-ghadeer-gardens/gallery/000.webp"},{"id":"d33c4e85-fece-4445-bbd2-fa89220a2590","slug":"al-ghaf-tower","name":"Al Ghaf Tower","developer":"Tiger  Properties","area":"Al Khan","city":"Sharjah","lat":25.31561275,"lng":55.37705362,"minPriceAed":699000,"handover":"Q1 2029","imageUrl":"https://new-projects-media.propertyfinder.com/project/d33c4e85-fece-4445-bbd2-fa89220a2590/gallery/image/3n7xrBMlNSrbxzUeQQk9FQEf-GYCybrat_abPmhkMEE=/original.webp"},{"id":"27dfd4b9-30e0-4b72-b5a2-26e77d9b42c8","slug":"al-hamra-greens","name":"Al Hamra Greens","developer":"Al Hamra Real Estate Management Services","area":"Al Hamra Village, Al Hamra Greens","city":"Ras Al Khaimah","lat":25.691833,"lng":55.791253,"minPriceAed":1269000,"handover":"Q1 2028","imageUrl":"/cdn/projects/al-hamra-greens/gallery/000.webp"},{"id":"3af584ed-cffa-4ebe-9a52-06d6b7dcbbc1","slug":"al-hamra-waterfront","name":"Al Hamra Waterfront","developer":"Al Hamra Real Estate Management Services","area":"Al Hamra Village, Al Hamra Waterfront","city":"Ras Al Khaimah","lat":25.696217,"lng":55.780274,"minPriceAed":1050000,"handover":"Q1 2027","imageUrl":"/cdn/projects/al-hamra-waterfront/gallery/000.webp"},{"id":"190b78ca-94cc-47db-adf1-cf33331fc937","slug":"al-haseen-residence-6","name":"Al Haseen Residence 6","developer":"Dugasta","area":"Dubai Industrial City, Saih Shuaib 2, Al Haseen Residences, Al Haseen Residences 1","city":"Dubai","lat":24.876184,"lng":55.049577,"minPriceAed":736256,"handover":"Q4 2027","imageUrl":"/cdn/projects/al-haseen-residence-6/gallery/000.webp"},{"id":"3c81e798-1b5b-44d7-b101-df6dae07dbc3","slug":"al-haseen-residences-5","name":"Al Haseen Residences Phase 5","developer":"Dugasta","area":"Dubai Industrial City, Saih Shuaib 2, Al Haseen Residences, Al Haseen Residences 1","city":"Dubai","lat":24.876184,"lng":55.049577,"minPriceAed":594000,"handover":"Q4 2026","imageUrl":"/cdn/projects/al-haseen-residences-5/gallery/000.webp"},{"id":"d5980780-d59e-4152-91be-16690247a9e6","slug":"al-jadaf-water-front","name":"Al Jadaf Water front","developer":"Ellington","area":"Al Jaddaf","city":"Dubai","lat":25.214338,"lng":55.325775,"minPriceAed":0,"imageUrl":"https://new-projects-media.propertyfinder.com/project/d5980780-d59e-4152-91be-16690247a9e6/gallery/image/AvNaFjtRd8HEHP1UFz7LqXF5TS2nTutDKK0v-YuIvKE=/original.webp"},{"id":"e444162d-12bf-4e93-9745-df9b1a5fe76a","slug":"al-jazi","name":"Al Jazi","developer":"Meraas Holding","area":"Umm Suqeim, Umm Suqeim 3, Madinat Jumeirah Living, Al Jazi","city":"Dubai","lat":25.131444,"lng":55.191355,"minPriceAed":219795,"handover":"Q4 2024","imageUrl":"https://new-projects-media.propertyfinder.com/project/e444162d-12bf-4e93-9745-df9b1a5fe76a/gallery/image/nmJK6HC06tWeH2YQUm7Sz2Cepzczyku2bkLQQpkcU1s=/original.webp"},{"id":"c85481e8-a636-4f8a-9ff2-ea9aa79abe5b","slug":"al-mamsha-hamsa","name":"Al Mamsha Hamsa","developer":"Alef Group","area":"Muwaileh, Al Mamsha, Hamsa","city":"Sharjah","lat":25.307932,"lng":55.467621,"minPriceAed":919000,"handover":"Q1 2029","imageUrl":"/cdn/projects/al-mamsha-hamsa/gallery/000.webp"},{"id":"7a5bf777-438d-436b-8367-c4b1e9db3bbd","slug":"al-mamsha-hamsa-phase-2-by-alef-group","name":"Al Mamsha Hamsa Phase 2 By Alef Group","developer":"Alef Group","area":"Muwaileh, Al Mamsha, Hamsa","city":"Sharjah","lat":25.307932,"lng":55.467621,"minPriceAed":794000,"handover":"Q2 2029","imageUrl":"/cdn/projects/al-mamsha-hamsa-phase-2-by-alef-group/gallery/000.webp"},{"id":"3050066c-84a0-4800-850d-45f8837c0f86","slug":"al-naseem-villas","name":"Al Naseem Villas","developer":"Modon Properties","area":"Al Hudayriat Island, Al Naseem","city":"Abu Dhabi","lat":24.40414568021,"lng":54.40593307418,"minPriceAed":8941936,"handover":"Q4 2026","imageUrl":"https://new-projects-media.propertyfinder.com/project/3050066c-84a0-4800-850d-45f8837c0f86/gallery/image/_wGdyB92doltNbIF73fSAmoeaJxWcsoMZZayXT58IpY=/original.webp"},{"id":"5ee7b5d0-d320-4373-b554-c5c56265d81d","slug":"al-sidr","name":"Al Sidr","developer":"Aldar Properties PJSC","area":"Saadiyat Island","city":"Abu Dhabi","lat":24.5302924,"lng":54.4451578,"minPriceAed":6100000,"handover":"Q3 2027","imageUrl":"https://new-projects-media.propertyfinder.com/project/5ee7b5d0-d320-4373-b554-c5c56265d81d/gallery/image/4Wf7RF9HtmIXbOL_Z-2MQUWFjQh4FWyzAVF1X_pkEC8=/original.webp"},{"id":"801c21dc-0c99-4475-af20-e59ea3448ca0","slug":"al-thowima-residences","name":"Al Thowima Residences","developer":"Wasl Properties","area":"Al Barsha, Al Barsha 1, Al Thowima Residences","city":"Dubai","lat":25.11078557277,"lng":55.19164378195,"minPriceAed":0,"handover":"Q4 2023","imageUrl":"https://new-projects-media.propertyfinder.com/project/801c21dc-0c99-4475-af20-e59ea3448ca0/gallery/image/m1cCNmQ95-EMNK3QQw8mhjmkufjdWnrlOVb9wvrOODs=/original.webp"},{"id":"77ed64c9-5860-437b-865d-ac382af71897","slug":"al-waha-residences","name":"Al Waha Residences","developer":"Expo City Dubai","area":"Expo City, Al Waha Residences","city":"Dubai","lat":24.958235,"lng":55.147876,"minPriceAed":1700000,"handover":"Q2 2027","imageUrl":"https://new-projects-media.propertyfinder.com/project/77ed64c9-5860-437b-865d-ac382af71897/gallery/image/kNyNBsgkdlBlPjE7UiFanOS6AY2ck4ZpDo0qAvwxSsU=/medium.webp"},{"id":"5935db0c-ff73-4980-8636-3262360750b9","slug":"al-waha-residences-phase-2-by-expo-dubai-group","name":"Al Waha Residences Phase 2 By Expo Dubai Group","developer":"Expo City Dubai","area":"Expo City, Al Waha Residences","city":"Dubai","lat":24.958235,"lng":55.147876,"minPriceAed":2814000,"handover":"Q2 2027","imageUrl":"https://new-projects-media.propertyfinder.com/project/5935db0c-ff73-4980-8636-3262360750b9/gallery/image/Yze66UwQhj6XtCTP2tSJJvShvQ5cCZ6Adt2O5-hPLWA=/medium.webp"},{"id":"01fbb93f-1284-4a62-951e-3b7516934627","slug":"al-walid-tower","name":"Al Walid Tower","developer":"Tiger  Properties","area":"Al Khan, Al Walid Tower","city":"Sharjah","lat":25.31238666707,"lng":55.37871867799,"minPriceAed":630000,"handover":"Q1 2028","imageUrl":"/cdn/projects/al-walid-tower/gallery/000.webp"},{"id":"53e8e350-77eb-4185-8213-178f80aadcfb","slug":"alana-at-the-valley","name":"Alana at The Valley","developer":"Emaar Properties","area":"The Valley, Alana","city":"Dubai","lat":25.011332,"lng":55.445348,"minPriceAed":3509888,"handover":"Q3 2027","imageUrl":"/cdn/projects/alana-at-the-valley/hero.webp"},{"id":"f86a91e7-6b60-4f3c-be23-dc0be4b84a36","slug":"alaya","name":"Alaya","developer":"Majid Al Futtaim","area":"Tilal Al Ghaf, Alaya","city":"Dubai","lat":25.02653,"lng":55.224829,"minPriceAed":6800000,"handover":"Q3 2026","imageUrl":"https://new-projects-media.propertyfinder.com/project/f86a91e7-6b60-4f3c-be23-dc0be4b84a36/gallery/image/fvesyYD7S2XWdoPPb0nKotUFYhqamgcxTgtqYRM5aoc=/original.webp"},{"id":"4778026c-90e6-435a-87eb-0017b2c5e6c1","slug":"albero","name":"Albero","developer":"Emaar Properties","area":"Dubai Creek Harbour (The Lagoons), Albero by Emaar","city":"Dubai","lat":25.2050426025,"lng":55.35735375165,"minPriceAed":1813888,"handover":"Q3 2029","imageUrl":"https://new-projects-media.propertyfinder.com/project/4778026c-90e6-435a-87eb-0017b2c5e6c1/gallery/image/hNdLctCeqJBUfR-Nce2l39A01ihMkodurDWcuWJAEkU=/original.webp"},{"id":"db7ba606-7b16-432c-87e8-9af6568d47fd","slug":"cassia-3","name":"Aldar Cassia 3","developer":"Aldar Properties PJSC","area":"Dubai Land, The Wilds by Aldar, Cassia, Cassia 3","city":"Dubai","lat":25.08653,"lng":55.303711,"minPriceAed":5100000,"handover":"Q2 2029","imageUrl":"https://new-projects-media.propertyfinder.com/project/db7ba606-7b16-432c-87e8-9af6568d47fd/gallery/image/Rx08V3CEyYR4zClava5eCLS5AxvyyStoBXFC8FE-iFU=/original.webp"},{"id":"4d3ef30e-ed63-44f6-b479-35fee0c45eab","slug":"aldar-cassia-4","name":"Aldar Cassia 4","developer":"Aldar Properties PJSC","area":"Dubai Land, The Wilds by Aldar, Cassia, Cassia 4","city":"Dubai","lat":25.08653,"lng":55.303711,"minPriceAed":5650000,"handover":"Q2 2029","imageUrl":"https://new-projects-media.propertyfinder.com/project/4d3ef30e-ed63-44f6-b479-35fee0c45eab/gallery/image/Rx08V3CEyYR4zClava5eCLS5AxvyyStoBXFC8FE-iFU=/original.webp"},{"id":"6f61ea29-ca79-4b10-961b-80b8f599b9e8","slug":"aldar-cassia-5","name":"Aldar Cassia 5","developer":"Aldar Properties PJSC","area":"Dubai Land, The Wilds by Aldar, Cassia, Cassia 5","city":"Dubai","lat":25.08653,"lng":55.303711,"minPriceAed":5100000,"handover":"Q2 2029","imageUrl":"https://new-projects-media.propertyfinder.com/project/6f61ea29-ca79-4b10-961b-80b8f599b9e8/gallery/image/Rx08V3CEyYR4zClava5eCLS5AxvyyStoBXFC8FE-iFU=/original.webp"},{"id":"f9f6dc87-94f6-4035-88cf-711bc34e74ac","slug":"aldar-cassia-6","name":"Aldar Cassia 6","developer":"Aldar Properties PJSC","area":"Dubai Land, The Wilds by Aldar, Cassia, Cassia 6","city":"Dubai","lat":25.0856216403,"lng":55.3067041211,"minPriceAed":5100000,"handover":"Q2 2029","imageUrl":"https://new-projects-media.propertyfinder.com/project/f9f6dc87-94f6-4035-88cf-711bc34e74ac/gallery/image/Rx08V3CEyYR4zClava5eCLS5AxvyyStoBXFC8FE-iFU=/original.webp"},{"id":"bc7d882f-78d6-4839-b2ea-75e50827496a","slug":"alta","name":"Alta","developer":"Meteora Developers","area":"Jumeirah Village Circle, District 11, Alta","city":"Dubai","lat":25.06019657451,"lng":55.20974310132,"minPriceAed":692000,"handover":"Q3 2026","imageUrl":"/cdn/projects/alta/gallery/000.webp"},{"id":"458391cf-39ed-4231-b8ac-45cf8ac8df33","slug":"alta-view-skyhomes","name":"Alta View Skyhomes","developer":"Object 1","area":"Jumeirah Village Circle, District 10, Alta View Skyhomes","city":"Dubai","lat":25.0631772078,"lng":55.2007908484,"minPriceAed":748000,"handover":"Q4 2028","imageUrl":"https://new-projects-media.propertyfinder.com/project/458391cf-39ed-4231-b8ac-45cf8ac8df33/gallery/image/aRyvzqagEVxa5rV9BijDyHZVkU5AlHBbhidDdrFbed4=/original.webp"},{"id":"ecdc7d24-2f33-494b-9875-7ba903f5870d","slug":"altai-tower","name":"Altai Tower","developer":"Tiger  Properties","area":"Jumeirah Village Triangle, District 1, Altai Tower","city":"Dubai","lat":25.03307501984,"lng":55.17347219665,"minPriceAed":1091475,"handover":"Q1 2026","imageUrl":"https://new-projects-media.propertyfinder.com/project/ecdc7d24-2f33-494b-9875-7ba903f5870d/gallery/image/xHn7WhycXCVR--mOvpwZ8s34jj4cLVMAKUk3vGDIWxs=/original.webp"},{"id":"e1a77fbb-7139-4a07-8572-281d7d80bd8f","slug":"altan","name":"Altan","developer":"Emaar Properties","area":"Dubai Creek Harbour (The Lagoons), Altan","city":"Dubai","lat":25.20502,"lng":55.355738,"minPriceAed":3221888,"handover":"Q3 2029","imageUrl":"/cdn/projects/altan/hero.jpg"},{"id":"c8f5c6df-02b7-40e1-9b20-df2641ad21b0","slug":"altiera-heights","name":"Altiera Heights","developer":"Ellington","area":"Jumeirah Islands","city":"Dubai","lat":25.05520086333,"lng":55.15875590445,"minPriceAed":2000000,"handover":"Q4 2028","imageUrl":"/cdn/projects/altiera-heights/gallery/000.webp"},{"id":"3a8baf3b-c062-4d5f-bd06-a588e1c76500","slug":"damac-altitude-tower","name":"Altitude","developer":"Damac Properties","area":"Business Bay, Damac Altitude Tower","city":"Dubai","lat":25.18195528847,"lng":55.2806153764,"minPriceAed":3334000,"handover":"Q1 2028","imageUrl":"/cdn/projects/damac-altitude-tower/hero.webp"},{"id":"93f230e8-d03f-4a36-abb9-5b7c9b082c83","slug":"alton","name":"Alton","developer":"Nshama","area":"Town Square, Alton","city":"Dubai","lat":25.0074727907,"lng":55.2886966177,"minPriceAed":1188000,"handover":"Q2 2028","imageUrl":"https://new-projects-media.propertyfinder.com/project/93f230e8-d03f-4a36-abb9-5b7c9b082c83/gallery/image/QETYL3HatpIA3f8AY-IQl95gESCabkXG-WNWFEwAjzg=/original.webp"},{"id":"b226bf9f-5ab3-4788-ac13-7f50d037d8b7","slug":"altura-2","name":"Altura Phase 2","developer":"BT Holdings","area":"Dubai South (Dubai World Central), Waada by Bahria Town, Altura 2","city":"Dubai","lat":24.831066,"lng":55.132636,"minPriceAed":899000,"handover":"Q1 2029","imageUrl":"/cdn/projects/altura-2/gallery/000.webp"},{"id":"1512fd51-e392-49a7-bb98-d2eef5eac10c","slug":"alva-2-at-the-valley","name":"Alva 2 at the Valley","developer":"Emaar Properties","area":"The Valley","city":"Dubai","lat":25.009684,"lng":55.451619,"minPriceAed":0,"handover":"Q1 2030","imageUrl":"https://new-projects-media.propertyfinder.com/project/1512fd51-e392-49a7-bb98-d2eef5eac10c/gallery/image/lWOkk-o9RyiXV9tplje2TXrBvmoQww8_xfWyKYfx7Hw=/original.webp"},{"id":"e3395565-b5ca-410a-bff6-bd3e1d62591b","slug":"alva-3-the-valley","name":"Alva 3 the valley","developer":"Emaar Properties","area":"The Valley","city":"Dubai","lat":25.009684,"lng":55.451619,"minPriceAed":0,"handover":"Q1 2030","imageUrl":"/cdn/projects/alva-the-valley/hero.jpg"},{"id":"541e67ac-a2f6-4f2a-a077-87cdc3a5a181","slug":"alva-the-valley","name":"Alva The Valley","developer":"Emaar Properties","area":"The Valley","city":"Dubai","lat":25.009684,"lng":55.451619,"minPriceAed":0,"handover":"Q1 2030","imageUrl":"/cdn/projects/alva-the-valley/hero.jpg"},{"id":"05f67498-6305-4426-add2-e04cc43acf9d","slug":"amara","name":"Amara","developer":"Majid Al Futtaim","area":"Tilal Al Ghaf, Amara","city":"Dubai","lat":25.030539,"lng":55.23131,"minPriceAed":6700000,"handover":"Q4 2026","imageUrl":"https://new-projects-media.propertyfinder.com/project/05f67498-6305-4426-add2-e04cc43acf9d/gallery/image/j_fXwpz05JGK65i46uiXxfaLYU4E6rw-Q46Y7lcH26M=/original.webp"},{"id":"309e9eb1-147a-412e-b6e6-d42d3132d696","slug":"anantara-mina","name":"Anantara Mina","developer":"RAK Properties","area":"Mina Al Arab, Anantara Mina","city":"Ras Al Khaimah","lat":25.7214316623,"lng":55.8509621711,"minPriceAed":2200000,"handover":"Q2 2028","imageUrl":"/cdn/projects/anantara-mina/gallery/000.webp"},{"id":"238a82b1-de2e-481e-aef9-45d90d8f4b4a","slug":"anantara-sharjah-residences","name":"Anantara Sharjah Residences","developer":"ARADA","area":"Al Heerah, Al Rifa'ah, Anantara Residences","city":"Sharjah","lat":25.3920093,"lng":55.4214947,"minPriceAed":2510000,"handover":"Q2 2027","imageUrl":"https://new-projects-media.propertyfinder.com/project/238a82b1-de2e-481e-aef9-45d90d8f4b4a/gallery/image/TtdjBxbRABAvzc0Et63ndizKmakSzNI3mBSjOdhG2gk=/medium.webp"},{"id":"ab8e696b-5c3a-41ff-a688-9a9f80f078f3","slug":"anber","name":"Anber","developer":"ARADA","area":"Aljada, Anber Townhouses","city":"Sharjah","lat":25.31825325708,"lng":55.47274684512,"minPriceAed":2185000,"handover":"Q4 2027","imageUrl":"https://new-projects-media.propertyfinder.com/project/ab8e696b-5c3a-41ff-a688-9a9f80f078f3/gallery/image/dqpowWw0JS_RV6hBL3sgFZBcvOVdLkA48mBcpNOAiUk=/medium.webp"},{"id":"0dd05546-2040-4841-840c-26e6f639d4b1","slug":"ansam-2","name":"Ansam Phase 2 by Aldar","developer":"Aldar Properties PJSC","area":"Yas Island, Ansam, Ansam 2","city":"Abu Dhabi","lat":24.484194,"lng":54.599114,"minPriceAed":951000,"imageUrl":"https://new-projects-media.propertyfinder.com/project/0dd05546-2040-4841-840c-26e6f639d4b1/gallery/image/k8IZjmiL76_xxwT6aTOL7wuAcXipdd3cd-6MgFvz33E=/original.webp"},{"id":"d8515082-aa3d-4f21-a649-8af5d4e65005","slug":"antigua","name":"Antigua","developer":"Damac Properties","area":"Dubai Land, Damac Islands 2, Antigua 1","city":"Dubai","lat":25.026672,"lng":55.309937,"minPriceAed":2750000,"handover":"Q4 2030","imageUrl":"https://new-projects-media.propertyfinder.com/project/d8515082-aa3d-4f21-a649-8af5d4e65005/gallery/image/AA5DiXmkXGEXC9Ei7ebI0KPz-PFAh7jr_ALsBvOdFBg=/original.webp"},{"id":"145e6d40-c286-4797-b480-8b6581ebd880","slug":"anya-arabian-ranches-3","name":"Anya Arabian Ranches by Emaar","developer":"Emaar Properties","area":"Arabian Ranches 3, Anya","city":"Dubai","lat":25.06687,"lng":55.339203,"minPriceAed":2010000,"handover":"Q4 2026","imageUrl":"/cdn/projects/anya-arabian-ranches-3/hero.jpg"},{"id":"4f16819f-1440-45b6-b150-1a8c9bea8e78","slug":"anya-2","name":"Anya Phase 2 By Emaar","developer":"Emaar Properties","area":"Arabian Ranches 3, Anya, Anya 2","city":"Dubai","lat":25.074236,"lng":55.33315,"minPriceAed":2283629,"handover":"Q4 2026","imageUrl":"/cdn/projects/anya-2/hero.jpg"},{"id":"eef8fa81-55f2-4be1-b6e1-16369d4774ea","slug":"aquacrest","name":"AquaCrest","developer":"Sobha Realty","area":"Umm Al Quwain Marina","city":"Umm Al Quwain","lat":25.52648733,"lng":55.59750438,"minPriceAed":1170000,"handover":"Q2 2029","imageUrl":"/cdn/projects/aquacrest/gallery/000.webp"},{"id":"8e5667f9-f48f-4d7c-a6df-f90d143be08a","slug":"aquamarine-beach-residences","name":"Aquamarine Beach Residences","developer":"Sobha Realty","area":"Umm Al Quwain Marina, Siniyah Island, Aquamarine Beach Residences","city":"Umm Al Quwain","lat":25.60786055582,"lng":55.61987278183,"minPriceAed":2051806,"handover":"Q2 2028","imageUrl":"/cdn/projects/aquamarine-beach-residences/gallery/000.webp"},{"id":"291f9be3-b186-4ff5-8d9c-e4d86f8cfc24","slug":"masaar-phase-3-by-arada","name":"Arada Masaar 3","developer":"ARADA","area":"Al Rowdat Suburb, Masaar 3","city":"Sharjah","lat":25.274593,"lng":55.633845,"minPriceAed":1790000,"handover":"Q4 2028","imageUrl":"https://new-projects-media.propertyfinder.com/project/291f9be3-b186-4ff5-8d9c-e4d86f8cfc24/gallery/image/N69GE28Qxh2nUvPXIMMJm9q7Yz-tfm15ddBK4pj8tQc=/medium.webp"},{"id":"7355575a-0d61-4afb-b795-7acb989c9255","slug":"arancia-yards","name":"Arancia Yards","developer":"Beyond","area":"City of Arabia, Arancia Yards By Beyond","city":"Dubai","lat":25.0872153,"lng":55.3251906,"minPriceAed":1100000,"handover":"Q4 2028","imageUrl":"/cdn/projects/arancia-yards/gallery/000.webp"},{"id":"2d6091a3-12e8-4d40-afef-623d594a452e","slug":"arancia-yards-2","name":"Arancia Yards 2","developer":"Beyond","area":"City of Arabia, Arancia Yards By Beyond","city":"Dubai","lat":25.0872153,"lng":55.3251906,"minPriceAed":1000000,"imageUrl":"https://new-projects-media.propertyfinder.com/project/2d6091a3-12e8-4d40-afef-623d594a452e/gallery/image/CKaAOnS60pq5WCU2OFCmg7F0LlNMewriUOr_IWsXlI8=/original.webp"},{"id":"951403f5-2405-49d0-a4fa-87f96b9f49d7","slug":"arbor-view","name":"Arbor View","developer":"Ellington","area":"Arjan, Arbor View","city":"Dubai","lat":25.06417555211,"lng":55.23025794902,"minPriceAed":817685,"handover":"Q1 2026","imageUrl":"https://new-projects-media.propertyfinder.com/project/951403f5-2405-49d0-a4fa-87f96b9f49d7/gallery/image/l2dQp9d8hpvxaz8l2UbPMz4RQoSAzm3bYPeBnY_zhTk=/original.webp"},{"id":"e6d93c8b-e268-4eff-a118-e6e5b0109627","slug":"aria-at-town-square-park","name":"Aria at Town Square Park","developer":"Nshama","area":"Town Square, Aria at Town Square","city":"Dubai","lat":25.0070999538,"lng":55.2898129153,"minPriceAed":800888,"handover":"Q3 2026","imageUrl":"https://new-projects-media.propertyfinder.com/project/e6d93c8b-e268-4eff-a118-e6e5b0109627/gallery/image/rPXmkmKbmLZzyormummdxe89q1c2SoUraDeOyBzLsYs=/original.webp"},{"id":"9279c810-3083-4bb8-a1c4-6d83bcaef5a2","slug":"aria-by-beyond","name":"Aria by Beyond","developer":"Beyond","area":"Maritime City, Aria by Beyond","city":"Dubai","lat":25.269325831,"lng":55.2701848981,"minPriceAed":1600000,"handover":"Q1 2027","imageUrl":"https://new-projects-media.propertyfinder.com/project/9279c810-3083-4bb8-a1c4-6d83bcaef5a2/gallery/image/uF-zzUmS3FjmPx33WBWUScNh7HNhEn7afqFsjgymOgU=/original.webp"},{"id":"c1166989-e775-473c-8c1c-fdc099436d1f","slug":"arim-villas-and-townhouses","name":"Arim Villas And Townhouses","developer":"Alef Group","area":"Sharjah","city":"Sharjah","lat":25.34649192285,"lng":55.42215571201,"minPriceAed":1400000,"handover":"Q4 2025","imageUrl":"https://new-projects-media.propertyfinder.com/project/c1166989-e775-473c-8c1c-fdc099436d1f/gallery/image/Gu4kCHSEc6galDKmXqu55Cr3gOErgOxZTOs1v9NKHC0=/original.webp"},{"id":"d352d59e-3ee2-43f7-9172-e3384ff1123c","slug":"arista","name":"Arista","developer":"Majid Al Futtaim","area":"Dubai Land, Ghaf Woods","city":"Dubai","lat":25.076268,"lng":55.316363,"minPriceAed":32000000,"handover":"Q4 2027","imageUrl":"https://new-projects-media.propertyfinder.com/project/d352d59e-3ee2-43f7-9172-e3384ff1123c/gallery/image/ivDxr8l0NR6x70fO9qGeGCwFcGN9mbZhEAeN3wBdPTQ=/original.webp"},{"id":"6293747e-2763-4767-aec7-7f4cf0f2fa68","slug":"arlo","name":"Arlo","developer":"Emaar Properties","area":"Dubai Creek Harbour (The Lagoons), Arlo","city":"Dubai","lat":25.206433,"lng":55.349821,"minPriceAed":1700000,"handover":"Q4 2028","imageUrl":"/cdn/projects/arlo/hero.jpg"},{"id":"231ff836-22b5-4e2e-a4f4-48679a7794a9","slug":"armani-beach-residences","name":"Armani Beach Residences","developer":"ARADA","area":"Palm Jumeirah, The Crescent, Armani Beach Residences","city":"Dubai","lat":25.13842902954,"lng":55.14688436116,"minPriceAed":23000000,"handover":"Q4 2027","imageUrl":"https://new-projects-media.propertyfinder.com/project/231ff836-22b5-4e2e-a4f4-48679a7794a9/gallery/image/J3N0X-3o-yCaB78-mo9rHOvtpUAflLsOyfF__8_Cyes=/medium.webp"},{"id":"10f39133-8e67-4aef-a2e6-b98ba4a2cf22","slug":"art-bay-east","name":"Art Bay East","developer":"Ellington","area":"Al Jaddaf, Art Bay, Art Bay East","city":"Dubai","lat":25.228737,"lng":55.337752,"minPriceAed":1000000,"handover":"Q3 2026","imageUrl":"https://new-projects-media.propertyfinder.com/project/10f39133-8e67-4aef-a2e6-b98ba4a2cf22/gallery/image/tesLrg91sirj7EyW2NEWhxp_bPiYjZkWNZ-fp32ZRJY=/original.webp"},{"id":"2b22565b-d1b9-4cf4-83a2-59048364ca32","slug":"art-bay-west","name":"Art Bay West","developer":"Ellington","area":"Al Jaddaf, Art Bay, Art Bay West","city":"Dubai","lat":25.228925,"lng":55.337742,"minPriceAed":1980000,"handover":"Q3 2026","imageUrl":"https://new-projects-media.propertyfinder.com/project/2b22565b-d1b9-4cf4-83a2-59048364ca32/gallery/image/tesLrg91sirj7EyW2NEWhxp_bPiYjZkWNZ-fp32ZRJY=/original.webp"},{"id":"4513cea8-6aae-4920-94d6-63936be25ea1","slug":"arthouse-hills","name":"Art House Hills By Adaan And Tuscany","developer":"Adaan and Tuscany","area":"Arjan, Art House Hills by Adaan and Tuscany","city":"Dubai","lat":25.064807,"lng":55.246007,"minPriceAed":886888,"handover":"Q4 2028","imageUrl":"/cdn/projects/arthouse-hills/hero.webp"},{"id":"3e945687-4938-4ace-afdc-492a1e7797ab","slug":"arthouse-residences","name":"Arthouse Residences","developer":"Cledor","area":"Al Marjan Island, Arthouse Residences","city":"Ras Al Khaimah","lat":25.687176,"lng":55.736251,"minPriceAed":1590750,"handover":"Q4 2027","imageUrl":"/cdn/projects/arthouse-residences/gallery/000.webp"},{"id":"74b9fbee-85b9-433d-9953-2986159cf793","slug":"arthouse-residences","name":"Arthouse Residences","developer":"Aviaan Real Estate Development","area":"Al Marjan Island, Arthouse Residences","city":"Ras Al Khaimah","lat":25.687176,"lng":55.736251,"minPriceAed":1080000,"handover":"Q4 2027","imageUrl":"https://new-projects-media.propertyfinder.com/project/74b9fbee-85b9-433d-9953-2986159cf793/gallery/image/EWNLt1WGR1iUtxVOCn03mWlyYC8fYiDaF7QyrPYJ88Q=/medium.webp"},{"id":"d7811efb-7e28-4c95-a3ed-9e758a81d541","slug":"asayel","name":"Asayel","developer":"Meraas Holding","area":"Umm Suqeim, Umm Suqeim 3, Madinat Jumeirah Living, Asayel","city":"Dubai","lat":25.13235046552,"lng":55.19043704767,"minPriceAed":2263584,"handover":"Q2 2023","imageUrl":"https://new-projects-media.propertyfinder.com/project/d7811efb-7e28-4c95-a3ed-9e758a81d541/gallery/image/r3sUnaUNcmKrNNPHMk-4Nl4Lyj0Mrm7YUR2hbC3wzfo=/original.webp"},{"id":"b7dede26-cd37-4304-918b-f9c9a6528a70","slug":"ascot-residences","name":"Ascot Residences","developer":"Nshama","area":"Town Square, Ascot Residences","city":"Dubai","lat":24.99941357354,"lng":55.29610397225,"minPriceAed":395000,"handover":"Q4 2024","imageUrl":"https://new-projects-media.propertyfinder.com/project/b7dede26-cd37-4304-918b-f9c9a6528a70/gallery/image/c_2bCZ7UskZJBxMGrWeo1OTi70AbaxK9fRSFGwhdrD0=/original.webp"},{"id":"3e500732-ee24-46e0-b1ae-e55e91aaa62b","slug":"ashwood-estates","name":"Ashwood Estates","developer":"Wasl Properties","area":"Jumeirah Golf Estates, Ashwood Estates","city":"Dubai","lat":25.020806,"lng":55.177942,"minPriceAed":11800000,"handover":"Q1 2029","imageUrl":"https://new-projects-media.propertyfinder.com/project/3e500732-ee24-46e0-b1ae-e55e91aaa62b/gallery/image/KfBn3P6EBF1fEnCm_4vo765zpeADACXJTapVbe7jkcU=/original.webp"},{"id":"48568636-a21e-4c63-8f28-91176398793e","slug":"aspin-grove","name":"Aspin Grove","developer":"AYS Property Development","area":"Jumeirah Village Circle","city":"Dubai","lat":25.05638764826,"lng":55.20812137772,"minPriceAed":514780,"handover":"Q3 2028","imageUrl":"/cdn/projects/aspin-grove/gallery/000.webp"},{"id":"e1b4f29d-1861-4260-99f1-35e727bf5650","slug":"aspirz","name":"Aspirz Tower","developer":"Danube Properties","area":"Dubai Sports City, Aspirz by Danube","city":"Dubai","lat":25.0429801813,"lng":55.2045323801,"minPriceAed":850000,"handover":"Q4 2028","imageUrl":"https://new-projects-media.propertyfinder.com/project/e1b4f29d-1861-4260-99f1-35e727bf5650/gallery/image/ppd_9q9UoHVFKsokdIdRlzFPwoO2VMi6zj1Rff-zcwY=/original.webp"},{"id":"4e280234-3e42-41ec-a9bc-417518d4476e","slug":"astra-south","name":"Astra Residences","developer":"Dugasta","area":"Dubai South (Dubai World Central), The Pulse, Astra South","city":"Dubai","lat":24.9448093978,"lng":55.2246788132,"minPriceAed":1935842,"handover":"Q3 2027","imageUrl":"/cdn/projects/astra-south/gallery/000.webp"},{"id":"95541384-e023-42ee-84f1-7a05f456bcb5","slug":"atelis","name":"Atelis","developer":"Meraas Holding","area":"Dubai Design District, Atelis at D3","city":"Dubai","lat":25.1913844603,"lng":55.2986749153,"minPriceAed":2100000,"handover":"Q3 2029","imageUrl":"https://new-projects-media.propertyfinder.com/project/95541384-e023-42ee-84f1-7a05f456bcb5/gallery/image/k8KMCFGHyT_cLOHEkBw5RMFIh2M8-pAzeW62UtJjIsc=/original.webp"},{"id":"3b50dccb-0da3-47c8-ac3b-eb722f872d5f","slug":"athlon-2-by-aldar","name":"Athlon 2 by Aldar","developer":"Aldar Properties PJSC","area":"Dubai Land, Athlon by Aldar, Athlon by Aldar 2","city":"Dubai","lat":25.0598758256,"lng":55.3118455582,"minPriceAed":2800000,"handover":"Q3 2028","imageUrl":"https://new-projects-media.propertyfinder.com/project/3b50dccb-0da3-47c8-ac3b-eb722f872d5f/gallery/image/CcZSS1S6lQgzd-VusraUHXTjrSq--kI8-qRqZ5afha4=/original.webp"},{"id":"d01cf884-c1ee-4b1d-8ae0-8dcab0d98fc1","slug":"athlon-by-aldar","name":"Athlon by Aldar","developer":"Aldar Properties PJSC","area":"Dubai Land, Athlon by Aldar","city":"Dubai","lat":25.0579298582,"lng":55.3021062,"minPriceAed":2800000,"handover":"Q2 2028","imageUrl":"https://new-projects-media.propertyfinder.com/project/d01cf884-c1ee-4b1d-8ae0-8dcab0d98fc1/gallery/image/s-LWtBxlL4dqjeYCwTm_E1el1-3zk8sTw0ziq1BITvk=/original.webp"},{"id":"d9eb95dd-0da0-44db-a5bf-dba165f511fa","slug":"nshama-augusta","name":"Augusta","developer":"Nshama","area":"Town Square, Augusta","city":"Dubai","lat":25.0034091,"lng":55.2879597,"minPriceAed":951000,"handover":"Q1 2028","imageUrl":"https://new-projects-media.propertyfinder.com/project/d9eb95dd-0da0-44db-a5bf-dba165f511fa/gallery/image/NqWzszGZrtLtLTkMMNKtQpFRvIB3I_VsR3b84az_UAs=/original.webp"},{"id":"280e7893-8c36-43b0-9bfd-a39da3ac2365","slug":"aura-tilal-al-ghaf","name":"Aura Tilal Al Ghaf","developer":"Majid Al Futtaim","area":"Tilal Al Ghaf, Aura","city":"Dubai","lat":25.02831335604,"lng":55.22895763355,"minPriceAed":2717101,"handover":"Q3 2024","imageUrl":"https://new-projects-media.propertyfinder.com/project/280e7893-8c36-43b0-9bfd-a39da3ac2365/gallery/image/u6TTz3VkaWPeQ5og5SvYRc9um-N_VsumGOcPeKFJRyk=/original.webp"},{"id":"f8726940-b6b9-4988-8a67-2accac1db98d","slug":"aurea","name":"Aurea","developer":"Emaar Properties","area":"Mina Rashid, Aurea","city":"Dubai","lat":25.275315,"lng":55.289468,"minPriceAed":2310888,"handover":"Q2 2030","imageUrl":"/cdn/projects/aurea/gallery/000.webp"},{"id":"d63cdff0-9a33-4299-bced-1393b0ac0425","slug":"aurelia-residences","name":"Aurel1A Residence","developer":"Object 1","area":"Dubai Sports City, Aurelia Residence","city":"Dubai","lat":25.04316280898,"lng":55.216955,"minPriceAed":598317,"handover":"Q1 2028","imageUrl":"https://new-projects-media.propertyfinder.com/project/d63cdff0-9a33-4299-bced-1393b0ac0425/gallery/image/OS5iWuFee7DHpxNGUGUWga1TxELu9DpIIX4gnb2nk34=/original.webp"},{"id":"1a5a02ff-514d-41e4-a0f9-e801a5163860","slug":"arista-tower","name":"Auresta Tower","developer":"Tiger  Properties","area":"Jumeirah Village Circle, District 11, Auresta tower","city":"Dubai","lat":25.0680525649,"lng":55.2167829153,"minPriceAed":727136,"handover":"Q4 2028","imageUrl":"https://new-projects-media.propertyfinder.com/project/1a5a02ff-514d-41e4-a0f9-e801a5163860/gallery/image/b35jz4I8cFJ14Hb1gqw9H2OqluOhHtouOxgBfaE7GFI=/original.webp"},{"id":"d65935c4-0e75-4d67-acc9-f36874a944cd","slug":"autograph-collection","name":"Autograph Collection","developer":"Damac Properties","area":"Damac Hills, Autograph Collection","city":"Dubai","lat":25.027615,"lng":55.251913,"minPriceAed":8542000,"handover":"Q2 2027","imageUrl":"https://new-projects-media.propertyfinder.com/project/d65935c4-0e75-4d67-acc9-f36874a944cd/gallery/image/_ENuArWEwffMrQ3R7-U0mZIT0lXsgxTSK5oF1FEuKd4=/original.webp"},{"id":"b14efa3b-9c9f-4d9d-97de-7d6516978fe8","slug":"avant-garde-residences-phase-2-by-skyline-builders","name":"Avant Garde Residences Phase 2 by Skyline Builders","developer":"Skyline Builders","area":"Jumeirah Village Circle, District 12, Avant Garde Residences II","city":"Dubai","lat":25.0567820062,"lng":55.2105222576,"minPriceAed":732270,"handover":"Q2 2028","imageUrl":"/cdn/projects/avant-garde-residences-phase-2-by-skyline-builders/gallery/000.webp"},{"id":"8438aed2-ffd4-494a-95da-d0a91f89d106","slug":"avant-garde-residences-ii","name":"Avant Garde-II Residences","developer":"Skyline Builders","area":"Jumeirah Village Circle, District 12, Avant Garde Residences II","city":"Dubai","lat":25.0567820062,"lng":55.2105222576,"minPriceAed":680000,"handover":"Q3 2029","imageUrl":"/cdn/projects/avant-garde-residences-ii/hero.webp"},{"id":"4b93ef5b-25a3-448c-b6a7-63e36301166e","slug":"avarra-by-palace","name":"Avarra by Palace","developer":"Emaar Properties","area":"Business Bay, Avarra by Palace","city":"Dubai","lat":25.1897422987,"lng":55.2612988476,"minPriceAed":3157888,"handover":"Q2 2031","imageUrl":"/cdn/projects/avarra-by-palace/gallery/000.webp"},{"id":"4826d544-460d-49ae-8a64-50a6a9799257","slug":"avelia","name":"Avelia","developer":"Emaar Properties","area":"The Valley, Avelia","city":"Dubai","lat":25.004972,"lng":55.450428,"minPriceAed":7250000,"handover":"Q4 2029","imageUrl":"/cdn/projects/avelia/hero.jpg"},{"id":"712ebe32-12c3-4b4f-a2c2-e6f216d39896","slug":"avena","name":"Avena By Emaar","developer":"Emaar Properties","area":"The Valley, Avena","city":"Dubai","lat":25.0038549,"lng":55.43916731349,"minPriceAed":4368000,"handover":"Q2 2028","imageUrl":"/cdn/projects/vida-residences-club-point/hero.webp"},{"id":"845a6226-82db-4b71-8c36-e8e44cd7eab4","slug":"avena-2","name":"Avena Phase 2 By Emaar","developer":"Emaar Properties","area":"The Valley, Avena, Avena 2","city":"Dubai","lat":25.00032852641,"lng":55.42694102113,"minPriceAed":4370000,"handover":"Q3 2028"},{"id":"cbbc0362-6be0-469a-91f0-7ff7f93a40cb","slug":"avenew-888","name":"Avenew 888","developer":"Avenew Properties","area":"Dubai South (Dubai World Central), Residential District, Avenew 888","city":"Dubai","lat":24.944027,"lng":55.216394,"minPriceAed":1601000,"handover":"Q1 2028","imageUrl":"/cdn/projects/avenew-888/gallery/000.webp"},{"id":"622e0c02-c41a-4b3b-a97b-4bd65402e9a2","slug":"avenue-park-towers","name":"Avenue Park Towers","developer":"Wasl Properties","area":"Bur Dubai, Al Kifaf, Avenue Park Towers","city":"Dubai","lat":25.23377374161,"lng":55.2930777963,"minPriceAed":1500000,"handover":"Q4 2028","imageUrl":"https://new-projects-media.propertyfinder.com/project/622e0c02-c41a-4b3b-a97b-4bd65402e9a2/gallery/image/s9fLHkeM-zBi3emeJWbqDYmjJgkbh4nBv1JIrpdGecM=/original.webp"},{"id":"86635703-94fc-4c3b-9d58-8afd4036cf3c","slug":"avenue-park-towers-2","name":"Avenue Park Towers 2","developer":"Wasl Properties","area":"Bur Dubai, Al Kifaf, Wasl 1","city":"Dubai","lat":25.232251,"lng":55.295668,"minPriceAed":0,"imageUrl":"https://new-projects-media.propertyfinder.com/project/86635703-94fc-4c3b-9d58-8afd4036cf3c/gallery/image/5LOFLJcOoHzKGzHmt7nVYMJCl6WhGSJ1JJ8vN2ZwpUA=/original.webp"},{"id":"6929eb1a-ce6a-4a53-bcd2-abfab224b125","slug":"avida-residences","name":"Avida Residences","developer":"Serene Marina Real Estate Developments","area":"Dubai Islands, Avida Residences","city":"Dubai","lat":25.2992494228,"lng":55.3142723749,"minPriceAed":1790000,"handover":"Q4 2027","imageUrl":"/cdn/projects/avida-residences/gallery/000.webp"},{"id":"4b884824-97e4-473d-bc6f-81ff6cac6523","slug":"avior-by-acube","name":"Avior By Acube","developer":"Acube Developers","area":"Sheikh Zayed Road, Avior By Acube","city":"Dubai","lat":25.1955486783,"lng":55.26139847302,"minPriceAed":3132846,"handover":"Q4 2026","imageUrl":"/cdn/projects/avior-by-acube/gallery/000.webp"},{"id":"a301a59d-b963-4eb5-bf6a-fa693323d6cc","slug":"avonlea","name":"Avonlea","developer":"Emaar Properties","area":"Mina Rashid, Avonlea","city":"Dubai","lat":25.25641703242,"lng":55.27614065767,"minPriceAed":1698020,"handover":"Q4 2027","imageUrl":"/cdn/projects/vida-residences-club-point/hero.webp"},{"id":"1c6b87b0-a0fe-4ffd-bf2b-016f110376f7","slug":"avra-and-aurora","name":"Avra and Aurora","developer":"H&H Development","area":"Dubai Hills Estate","city":"Dubai","lat":25.11295847,"lng":55.25711328,"minPriceAed":43800000,"handover":"Q2 2028","imageUrl":"https://new-projects-media.propertyfinder.com/project/1c6b87b0-a0fe-4ffd-bf2b-016f110376f7/gallery/image/6LT0QqlkoAyczInzBXBV-B-TDw4kJtUM5jTYRwUcq8k=/original.webp"},{"id":"73070b03-2554-46d4-baa0-13662033790d","slug":"aya-beachfront-residences","name":"Aya Beachfront Residences","developer":"Deyaar Development","area":"Al Raudah, Aya Beachfront Residences","city":"Umm Al Quwain","lat":25.58011161142,"lng":55.56432967143,"minPriceAed":1095000,"handover":"Q4 2027","imageUrl":"/cdn/projects/aya-beachfront-residences/gallery/000.webp"},{"id":"c674a8cd-8274-48d5-8fcb-4508e68efa0b","slug":"ayala-on-the-park","name":"Ayala on the Park","developer":"Nshama","area":"Town Square, Ayala on the Park","city":"Dubai","lat":25.0056413,"lng":55.2916827,"minPriceAed":800000,"handover":"Q3 2026","imageUrl":"https://new-projects-media.propertyfinder.com/project/c674a8cd-8274-48d5-8fcb-4508e68efa0b/gallery/image/1byrtQmCxl1MyVTmcHaDywFiRcPzNFRgX2x1tWw3XPE=/original.webp"},{"id":"8c111a5a-64de-43a2-9e7b-3fc21ec495ab","slug":"aykon-city","name":"Aykon City - Tower B","developer":"Damac Properties","area":"Business Bay, Aykon City, Aykon City Tower B","city":"Dubai","lat":25.180151,"lng":55.252418,"minPriceAed":1030050,"handover":"Q3 2023","imageUrl":"https://new-projects-media.propertyfinder.com/project/8c111a5a-64de-43a2-9e7b-3fc21ec495ab/gallery/image/B0MWWYNQltg1dB4fmqKZHbshzkTnT0GaMVP9xbXkxjs=/original.webp"},{"id":"9abca2ff-342e-4fd1-bda6-af1ada52b7f2","slug":"aykon-city-3","name":"Aykon City 3","developer":"Damac Properties","area":"Business Bay, Aykon City, Aykon City Tower C","city":"Dubai","lat":25.180202,"lng":55.252432,"minPriceAed":650000,"handover":"Q4 2027","imageUrl":"https://new-projects-media.propertyfinder.com/project/9abca2ff-342e-4fd1-bda6-af1ada52b7f2/gallery/image/rnTYweQDggcoGj_AjfJzwk3afgf39MfhPnRsV6QMZhI=/original.webp"},{"id":"dcec9d13-3ba1-4cb4-8898-1643e7e5a849","slug":"aysha-residences","name":"Aysha Residences By Eagle Hills","developer":"Eagle Hills","area":"Al Khan, Maryam Island, Aysha Residence","city":"Sharjah","lat":25.325056,"lng":55.361667,"minPriceAed":477888,"handover":"Q1 2024","imageUrl":"https://new-projects-media.propertyfinder.com/project/dcec9d13-3ba1-4cb4-8898-1643e7e5a849/gallery/image/T8lCFIbJJBeYtmVDPtGamXgZu4v5icGH62uYJMB7z04=/original.webp"},{"id":"483ef793-e36f-4f6f-8b34-4b5fbd841119","slug":"aysha-residences-2","name":"Aysha Residences Phase 2 By Eagle Hills","developer":"Eagle Hills","area":"Al Khan, Maryam Island, Aysha Residence","city":"Sharjah","lat":25.325056,"lng":55.361667,"minPriceAed":2065888,"handover":"Q1 2026","imageUrl":"https://new-projects-media.propertyfinder.com/project/483ef793-e36f-4f6f-8b34-4b5fbd841119/gallery/image/w_hPTWxTBdGxcfzS1LZDE8wWp6tWvlV3cCrPgqmjMjY=/original.webp"},{"id":"73da01e7-0e75-41e5-a768-c9fd1f29b8a3","slug":"azha-millennium-residences","name":"Azha Millennium Residences","developer":"Emirates properties","area":"Jumeirah Village Triangle, District 4, Azha Millennium Residences","city":"Dubai","lat":25.04236,"lng":55.189938,"minPriceAed":650000,"handover":"Q4 2027","imageUrl":"/cdn/projects/azha-millennium-residences/gallery/000.webp"},{"id":"a2bcf0b2-edcb-4a6b-84b7-51c542adf22a","slug":"azizi-717-tower","name":"Azizi 717 Tower","developer":"Azizi Developments","area":"World Trade Center, Dubai Trade Centre District, Building C1","city":"Dubai","lat":25.2256011,"lng":55.2877419,"minPriceAed":1827660,"handover":"Q1 2024","imageUrl":"https://new-projects-media.propertyfinder.com/project/a2bcf0b2-edcb-4a6b-84b7-51c542adf22a/gallery/image/809eGaNEgRZS9yI0SoMZGyHpwLskoiZV2IueiANKrts=/original.webp"},{"id":"c1e3d94a-723f-4f4d-9f0f-a1f464ee0786","slug":"azizi-abraham","name":"Azizi Abraham","developer":"Azizi Developments","area":"Downtown Jebel Ali, Azizi Abraham","city":"Dubai","lat":24.96897585,"lng":55.0875840933,"minPriceAed":661000,"handover":"Q2 2027","imageUrl":"https://new-projects-media.propertyfinder.com/project/c1e3d94a-723f-4f4d-9f0f-a1f464ee0786/gallery/image/6UboNFScweHfEeq84o3YynXKxs7Sv-lJjvfSlM7BD64=/original.webp"},{"id":"af659ee8-602e-4990-88c8-dca2086c45ed","slug":"azizi-amber","name":"Azizi Amber","developer":"Azizi Developments","area":"Al Furjan, Azizi Amber","city":"Dubai","lat":25.01891577266,"lng":55.12315947009,"minPriceAed":1510000,"handover":"Q3 2025","imageUrl":"https://new-projects-media.propertyfinder.com/project/af659ee8-602e-4990-88c8-dca2086c45ed/gallery/image/o2v3Yg8VaVxMG7PpQvpzRq_wJg_cmgIHzwR5T7hvJZE=/original.webp"},{"id":"cb45bf31-32a9-44d8-ace0-e5ec16173503","slug":"azizi-ameer","name":"Azizi Amir","developer":"Azizi Developments","area":"Al Furjan","city":"Dubai","lat":25.02506958361,"lng":55.14615463425,"minPriceAed":1269000,"handover":"Q2 2027","imageUrl":"https://new-projects-media.propertyfinder.com/project/cb45bf31-32a9-44d8-ace0-e5ec16173503/gallery/image/FeGP2Qv5-PBpaSf--K1mpU2HwcQwVx8Qguvk5p5OaKU=/original.webp"},{"id":"07bd6a91-2295-420e-b812-ac890508011a","slug":"azizi-aryan","name":"Azizi Arian","developer":"Azizi Developments","area":"Downtown Jebel Ali, Azizi Aryan","city":"Dubai","lat":24.97860283055,"lng":55.09207322884,"minPriceAed":517000,"handover":"Q1 2028","imageUrl":"https://new-projects-media.propertyfinder.com/project/07bd6a91-2295-420e-b812-ac890508011a/gallery/image/xBxVf83pBcD07IrLcEu89Qj_md3loJ6xIvmHg7rT_i8=/original.webp"},{"id":"4e09a4e2-fb65-4cfd-a0b7-d8a04011f320","slug":"azizi-aura-2","name":"Azizi Aura Phase 2","developer":"Azizi Developments","area":"Jebel Ali, Jebel Ali Village, Azizi Aura Phase 2","city":"Dubai","lat":24.9785687306,"lng":55.09220383069,"minPriceAed":564000,"handover":"Q4 2026","imageUrl":"https://new-projects-media.propertyfinder.com/project/4e09a4e2-fb65-4cfd-a0b7-d8a04011f320/gallery/image/bQpj_RSZi9f0xGFOANdZteNHqwx2aS4mWSMeoYQ8M8Q=/original.webp"},{"id":"1faa960d-5de6-4190-90c3-b6ad058a5f03","slug":"azizi-beach-oasis","name":"Azizi Beach Oasis","developer":"Azizi Developments","area":"Dubai Studio City, Azizi Beach Oasis","city":"Dubai","lat":25.03712809171,"lng":55.23801196714,"minPriceAed":881000,"handover":"Q2 2024","imageUrl":"https://new-projects-media.propertyfinder.com/project/1faa960d-5de6-4190-90c3-b6ad058a5f03/gallery/image/ITJ4GXqYBQwU8cRHa0ol2te3TCYL1mZsPdfosRc7u4w=/original.webp"},{"id":"150280aa-7677-40c8-a70f-3906db4726f3","slug":"azizi-berton","name":"AZIZI Berton","developer":"Azizi Developments","area":"Al Furjan, AZIZI Berton","city":"Dubai","lat":25.02001857085,"lng":55.15016332225,"minPriceAed":335000,"handover":"Q3 2023","imageUrl":"https://new-projects-media.propertyfinder.com/project/150280aa-7677-40c8-a70f-3906db4726f3/gallery/image/-efcEgA5fnyHUcODkSIhSlnG0uHYxbaDWkrWfeDCH0k=/original.webp"},{"id":"07b8f500-f9ed-4964-b988-c8d39eab2a40","slug":"azizi-central","name":"Azizi Central","developer":"Azizi Developments","area":"Al Furjan, Azizi Central","city":"Dubai","lat":25.02587678338,"lng":55.15728162699,"minPriceAed":1073000,"handover":"Q4 2024","imageUrl":"https://new-projects-media.propertyfinder.com/project/07b8f500-f9ed-4964-b988-c8d39eab2a40/gallery/image/w_D8pHO_Ja_chBQ5gUwWjEpLKLm-70cHTnY7s4JNXEk=/original.webp"},{"id":"64cc80f1-57bf-4eae-9a22-e50f032a91e9","slug":"azizi-david","name":"Azizi David","developer":"Azizi Developments","area":"Al Jaddaf, Dubai Healthcare City 2, Azizi David","city":"Dubai","lat":25.213527893,"lng":55.329808053,"minPriceAed":829000,"handover":"Q4 2027","imageUrl":"https://new-projects-media.propertyfinder.com/project/64cc80f1-57bf-4eae-9a22-e50f032a91e9/gallery/image/iLkrpS4GnH1dJ0-Si-HSzvRRVxhIPwsmgBHRjDDuLQw=/original.webp"},{"id":"a01ab473-fa07-4dd6-a1ab-ad50c5800d30","slug":"azizi-farishta-2","name":"Azizi Farishta II","developer":"Azizi Developments","area":"Al Jaddaf","city":"Dubai","lat":25.214338,"lng":55.325775,"minPriceAed":759000,"handover":"Q4 2028","imageUrl":"https://new-projects-media.propertyfinder.com/project/a01ab473-fa07-4dd6-a1ab-ad50c5800d30/gallery/image/Ji8RlXrcH0LoGud4z2Zm60Lvxs5Udm8MiMrWyhLy4yY=/original.webp"},{"id":"e0cc1655-aae3-406e-842d-7de87f6a14f5","slug":"azizi-gabriel","name":"Azizi Gabriel","developer":"Azizi Developments","area":"Jebel Ali, Jebel Ali Industrial, Jebel Ali Industrial 2, Azizi Gabriel","city":"Dubai","lat":24.9555831,"lng":55.0791683,"minPriceAed":564000,"handover":"Q4 2028","imageUrl":"https://new-projects-media.propertyfinder.com/project/e0cc1655-aae3-406e-842d-7de87f6a14f5/gallery/image/3Ki9eoCg5tIj6-1orXJhuDVvFjUpyAGwjlewcfxmdlU=/original.webp"},{"id":"d74e73ab-1f64-47cd-9137-8ca1f7a67485","slug":"azizi-gardens","name":"Azizi Gardens","developer":"Azizi Developments","area":"Meydan, Meydan Avenue, Azizi Gardens","city":"Dubai","lat":25.164979,"lng":55.305692,"minPriceAed":940000,"handover":"Q4 2023","imageUrl":"https://new-projects-media.propertyfinder.com/project/d74e73ab-1f64-47cd-9137-8ca1f7a67485/gallery/image/d5r3KeV5hycytGguAss4B_Ipc_2SGoDxFwpzrxx_-rc=/original.webp"},{"id":"37f81f38-5944-45a6-97bd-641e8555b6b1","slug":"azizi-grand","name":"Azizi Grand","developer":"Azizi Developments","area":"Dubai Sports City, Azizi Grand","city":"Dubai","lat":25.03807034787,"lng":55.20467776138,"minPriceAed":1940000,"handover":"Q1 2025","imageUrl":"https://new-projects-media.propertyfinder.com/project/37f81f38-5944-45a6-97bd-641e8555b6b1/gallery/image/-8ik5Zmi-dDaOB9Wxp88KdVN19X3E23NWLJ3rqEmy_o=/original.webp"},{"id":"52d1b846-8b93-498c-809f-caf2372c3884","slug":"azizi-greenfield","name":"Azizi Greenfield","developer":"Azizi Developments","area":"Meydan, Meydan Avenue, Azizi Greenfield","city":"Dubai","lat":25.15865,"lng":55.295646,"minPriceAed":1510000,"handover":"Q1 2024","imageUrl":"https://new-projects-media.propertyfinder.com/project/52d1b846-8b93-498c-809f-caf2372c3884/gallery/image/fPH78FL6R6wrxQhkowWirco9UZiB_QR2WET7X9OhFn0=/original.webp"},{"id":"70353543-c5a4-42cd-9043-f78bb2779fe9","slug":"azizi-jaddaf-beach-oasis","name":"Azizi Jaddaf Beach Oasis","developer":"Azizi Developments","area":"Al Jaddaf, Azizi Jaddaf Beach Oasis","city":"Dubai","lat":25.2228665373,"lng":55.3325658829,"minPriceAed":720000,"handover":"Q4 2028","imageUrl":"https://new-projects-media.propertyfinder.com/project/70353543-c5a4-42cd-9043-f78bb2779fe9/gallery/image/MApq4-OyIj79MtRMnkdpyJzj9hBIRM7vrmSItgEqx3Q=/original.webp"},{"id":"a619befb-9036-4324-849a-faa78e4860cb","slug":"azizi-jewel","name":"Azizi Jewel","developer":"Azizi Developments","area":"Al Furjan, Azizi Jewel","city":"Dubai","lat":25.01844899881,"lng":55.12706740861,"minPriceAed":532000,"handover":"Q4 2025","imageUrl":"https://new-projects-media.propertyfinder.com/project/a619befb-9036-4324-849a-faa78e4860cb/gallery/image/jVnIPABMhEmSrO7Utk47W0rlrtaJo7s--XYqeug0qZs=/original.webp"},{"id":"b9e90cc3-8b34-4f37-aca5-6870db87f06d","slug":"azizi-leily","name":"Azizi Leily","developer":"Azizi Developments","area":"Al Jaddaf, Azizi Leily","city":"Dubai","lat":25.213661,"lng":55.328848,"minPriceAed":828000,"handover":"Q3 2028","imageUrl":"https://new-projects-media.propertyfinder.com/project/b9e90cc3-8b34-4f37-aca5-6870db87f06d/gallery/image/2hhmw9nsAP4ZDqVpy4q0enyi_U6wK9ryIS5AEZoOQmc=/original.webp"},{"id":"de56fafe-9f84-4d22-b0aa-3aead5cfaf5e","slug":"azizi-lina","name":"Azizi Lina","developer":"Azizi Developments","area":"Downtown Jebel Ali, Azizi Lina","city":"Dubai","lat":24.970879,"lng":55.089278,"minPriceAed":601000,"handover":"Q3 2028","imageUrl":"/cdn/projects/azizi-lina/gallery/000.webp"},{"id":"408c089f-82bc-499e-8a14-2d087b26dd42","slug":"azizi-milan","name":"Azizi Milan","developer":"Azizi Developments","area":"City of Arabia, Azizi Milan","city":"Dubai","lat":25.088381,"lng":55.325545,"minPriceAed":560000,"handover":"Q2 2028","imageUrl":"/cdn/projects/azizi-milan/hero.webp"},{"id":"f542eca1-22cb-4bdd-9fe6-33e2eb81e4ca","slug":"azizi-milan-1","name":"Azizi Milan 18","developer":"Azizi Developments","area":"City of Arabia, Azizi Milan","city":"Dubai","lat":25.088381,"lng":55.325545,"minPriceAed":700000,"handover":"Q2 2027","imageUrl":"https://new-projects-media.propertyfinder.com/project/f542eca1-22cb-4bdd-9fe6-33e2eb81e4ca/gallery/image/hc4WD9hBqoJRDZHgp5IRlzjhUQeca8HHnSMkKhT_Hsg=/original.webp"},{"id":"a07c5cf2-e90e-4cd1-acac-faad509ff32b","slug":"azizi-milan-20","name":"Azizi Milan 20","developer":"Azizi Developments","area":"City of Arabia, Azizi Milan 20","city":"Dubai","lat":25.0921823553,"lng":55.3316441693,"minPriceAed":591000,"handover":"Q2 2027","imageUrl":"https://new-projects-media.propertyfinder.com/project/a07c5cf2-e90e-4cd1-acac-faad509ff32b/gallery/image/0ZiNhA90nHnY9DIaEo-2GpDT9eWFhdR4bkAGWV2f1os=/original.webp"},{"id":"2252a883-5f59-42db-a8da-d8442fb44b20","slug":"azizi-milan-28","name":"Azizi Milan 28","developer":"Azizi Developments","area":"City of Arabia, Azizi Milan 28","city":"Dubai","lat":25.081448,"lng":55.32979,"minPriceAed":652000,"handover":"Q2 2027","imageUrl":"https://new-projects-media.propertyfinder.com/project/2252a883-5f59-42db-a8da-d8442fb44b20/gallery/image/G1lWacSE2RKdGso1Nkkb-8kPaNdt7UAk8FM7UaGY9Ps=/original.webp"},{"id":"cc819d9d-988b-414a-aa82-2ead58da26e4","slug":"azizi-milan-30","name":"Azizi Milan 30","developer":"Azizi Developments","area":"City of Arabia, Azizi Milan 30","city":"Dubai","lat":25.089936732,"lng":55.328755,"minPriceAed":592000,"handover":"Q2 2027","imageUrl":"https://new-projects-media.propertyfinder.com/project/cc819d9d-988b-414a-aa82-2ead58da26e4/gallery/image/0ZiNhA90nHnY9DIaEo-2GpDT9eWFhdR4bkAGWV2f1os=/original.webp"},{"id":"ae3a75fd-5d34-4d75-b6da-8d435c761fc0","slug":"milan","name":"Azizi Milan 51","developer":"Azizi Developments","area":"City of Arabia, Azizi Milan 51","city":"Dubai","lat":25.0859623098,"lng":55.3281502712,"minPriceAed":586000,"handover":"Q1 2027","imageUrl":"https://new-projects-media.propertyfinder.com/project/ae3a75fd-5d34-4d75-b6da-8d435c761fc0/gallery/image/0ZiNhA90nHnY9DIaEo-2GpDT9eWFhdR4bkAGWV2f1os=/original.webp"},{"id":"a011aadd-0809-4e69-b5d8-8f3890894ab3","slug":"azizi-milan-53","name":"Azizi Milan 53","developer":"Azizi Developments","area":"City of Arabia, Azizi Milan 53","city":"Dubai","lat":25.0886183951,"lng":55.325595724,"minPriceAed":644000,"handover":"Q2 2028","imageUrl":"https://new-projects-media.propertyfinder.com/project/a011aadd-0809-4e69-b5d8-8f3890894ab3/gallery/image/RX144mWLmeqYC7Tk7PMdDHAkrnAEVwZL5O5-P83Rtt0=/original.webp"},{"id":"cd8e1489-2a49-4262-8e5f-3bea91f5e1ca","slug":"azizi-milan-55","name":"Azizi Milan 55","developer":"Azizi Developments","area":"City of Arabia, Azizi Milan 55","city":"Dubai","lat":25.0851265,"lng":55.32956,"minPriceAed":591000,"handover":"Q2 2027","imageUrl":"https://new-projects-media.propertyfinder.com/project/cd8e1489-2a49-4262-8e5f-3bea91f5e1ca/gallery/image/qzRKH7DS_HCN-ArixLtHtN0IM7raDzIUFOGDZUiLFPA=/original.webp"},{"id":"0ba20d36-3c7c-4b57-b5e9-e5c3a94ee41f","slug":"azizi-milan-18","name":"Azizi Milan 9","developer":"Azizi Developments","area":"City of Arabia, Azizi Milan 9","city":"Dubai","lat":25.0932226501,"lng":55.3276231693,"minPriceAed":620000,"handover":"Q2 2027","imageUrl":"https://new-projects-media.propertyfinder.com/project/0ba20d36-3c7c-4b57-b5e9-e5c3a94ee41f/gallery/image/JnB_C0mp6XCRH5Zgphbk5Ps_77R56izScZYsWe2gXKA=/original.webp"},{"id":"ff8ec4cc-2549-453c-b1fb-cbd2b8fd6da4","slug":"azizi-milan-heights","name":"Azizi Milan Heights","developer":"Azizi Developments","area":"City of Arabia, Azizi Milan Heights","city":"Dubai","lat":25.095104317,"lng":55.3253006773,"minPriceAed":575000,"handover":"Q2 2028","imageUrl":"https://new-projects-media.propertyfinder.com/project/ff8ec4cc-2549-453c-b1fb-cbd2b8fd6da4/gallery/image/md4RJrDhkqVGJUgcqg24EUDulaD4WACEaah2p3UPF9s=/original.webp"},{"id":"dd37386b-be09-417d-bce6-665102fdecdc","slug":"azizi-mirage","name":"Azizi Mirage 1","developer":"Azizi Developments","area":"Dubai Studio City, Azizi Mirage 1","city":"Dubai","lat":25.040724,"lng":55.248155,"minPriceAed":822530,"handover":"Q2 2025","imageUrl":"https://new-projects-media.propertyfinder.com/project/dd37386b-be09-417d-bce6-665102fdecdc/gallery/image/A29ORthMTdm3tG8jq2ho_KxSeXI7Q6J7SkOKc6liUIo=/original.webp"},{"id":"b8b901f9-e8e8-477a-b114-c6ea168e9b04","slug":"azizi-neila","name":"Azizi Neila","developer":"Azizi Developments","area":"Al Furjan, Azizi Neila","city":"Dubai","lat":25.03841939813,"lng":55.14031112194,"minPriceAed":925000,"handover":"Q3 2027","imageUrl":"https://new-projects-media.propertyfinder.com/project/b8b901f9-e8e8-477a-b114-c6ea168e9b04/gallery/image/Ni9QmEHWp0LZc6ZalS__dTUbp54nVQS0myLJYRZBDoM=/original.webp"},{"id":"a23799e8-e451-4173-a979-b5aeb1e3705a","slug":"azizi-noura","name":"Azizi Noura","developer":"Azizi Developments","area":"Jebel Ali","city":"Dubai","lat":25.034304,"lng":55.115443,"minPriceAed":570000,"handover":"Q4 2027","imageUrl":"https://new-projects-media.propertyfinder.com/project/a23799e8-e451-4173-a979-b5aeb1e3705a/gallery/image/xoRjQ9_VPZ-pjAYBnjiWphS8paC_qx6qVVvLd5j82uE=/original.webp"},{"id":"4e88e81d-643f-4088-b09c-f756ed83b4c0","slug":"azizi-park-avenue","name":"Azizi Park Avenue","developer":"Azizi Developments","area":"Meydan, Meydan Avenue, Azizi Park Avenue","city":"Dubai","lat":25.166243,"lng":55.307807,"minPriceAed":1320000,"handover":"Q2 2022","imageUrl":"https://new-projects-media.propertyfinder.com/project/4e88e81d-643f-4088-b09c-f756ed83b4c0/gallery/image/b5rlkNFMa1e51XMp-2LdsCXPXVwde0kDPRKnj9KfpBo=/original.webp"},{"id":"3dcbc41e-29b6-484b-8255-b6672126c17f","slug":"azizi-pearl","name":"Azizi Pearl","developer":"Azizi Developments","area":"Al Furjan, AZIZI Pearl","city":"Dubai","lat":25.01938339564,"lng":55.1463438553,"minPriceAed":1502000,"handover":"Q2 2024","imageUrl":"https://new-projects-media.propertyfinder.com/project/3dcbc41e-29b6-484b-8255-b6672126c17f/gallery/image/hEK4R-GYkzKhprAC7HZyfQ-unrJcIYWJBbI_d_HDJV8=/original.webp"},{"id":"07b5898b-ba6e-43d6-950f-d07616a423df","slug":"azizi-raffi","name":"Azizi Raffi","developer":"Azizi Developments","area":"Al Furjan, Azizi Raffi","city":"Dubai","lat":25.01849794384,"lng":55.12155155093,"minPriceAed":717000,"handover":"Q1 2028","imageUrl":"https://new-projects-media.propertyfinder.com/project/07b5898b-ba6e-43d6-950f-d07616a423df/gallery/image/To7BKkDacav-8qNaVRNwF12eDfSKb5S3czUKqphJTsc=/original.webp"},{"id":"67da6c3d-cc8c-484b-a851-f84f59a1a13c","slug":"azizi-riviera","name":"Azizi Riviera","developer":"Azizi Developments","area":"Meydan, Meydan One, Azizi Riviera","city":"Dubai","lat":25.17372788145,"lng":55.31094144099,"minPriceAed":561000,"handover":"Q3 2024","imageUrl":"https://new-projects-media.propertyfinder.com/project/67da6c3d-cc8c-484b-a851-f84f59a1a13c/gallery/image/qc0Kx7L9bNATv3ZI9bhzX58XlXqkzV-asq6r6fpopuM=/original.webp"},{"id":"52c4d27a-bd38-47d8-9cbf-7cd8aef42310","slug":"azizi-riviera-15","name":"Azizi Riviera 15","developer":"Azizi Developments","area":"Meydan, Meydan One, Azizi Riviera, Azizi Riviera 15","city":"Dubai","lat":25.17327213129,"lng":55.31199400199,"minPriceAed":379376,"handover":"Q3 2023","imageUrl":"https://new-projects-media.propertyfinder.com/project/52c4d27a-bd38-47d8-9cbf-7cd8aef42310/gallery/image/QX0lZaGzFQ_vYFGQqnV3d1o0NymCQu6Rp5GbX8_GYVw=/original.webp"},{"id":"0cb62992-c9ce-4ed9-8c81-5ba4753feff4","slug":"azizi-riviera-18","name":"Azizi Riviera 18","developer":"Azizi Developments","area":"Meydan, Meydan One, Azizi Riviera, Azizi RIviera 18","city":"Dubai","lat":25.17315561279,"lng":55.30811016333,"minPriceAed":561000,"handover":"Q3 2023","imageUrl":"https://new-projects-media.propertyfinder.com/project/0cb62992-c9ce-4ed9-8c81-5ba4753feff4/gallery/image/PXMlIVQJhDPKCV0jiZpmbRBvQ947NVt8mipP5BwKRV4=/original.webp"},{"id":"c9259cd5-654c-4e74-881b-979818002e43","slug":"azizi-riviera-19","name":"Azizi Riviera 19","developer":"Azizi Developments","area":"Meydan, Meydan One, Azizi Riviera, Azizi Riviera 19","city":"Dubai","lat":25.17304488014,"lng":55.30902441592,"minPriceAed":590000,"handover":"Q4 2023","imageUrl":"https://new-projects-media.propertyfinder.com/project/c9259cd5-654c-4e74-881b-979818002e43/gallery/image/vX5yDg9F8RKbYW78OiIh3PfrLhGC_sJLyhIZdJu5szc=/original.webp"},{"id":"b1740149-32c2-4bbf-bcf6-6471aab01fe2","slug":"azizi-riviera-21","name":"Azizi Riviera 21","developer":"Azizi Developments","area":"Meydan, Meydan One, Azizi Riviera, Azizi Riviera 21","city":"Dubai","lat":25.17298993178,"lng":55.30544098467,"minPriceAed":490000,"handover":"Q2 2023","imageUrl":"https://new-projects-media.propertyfinder.com/project/b1740149-32c2-4bbf-bcf6-6471aab01fe2/gallery/image/QX0lZaGzFQ_vYFGQqnV3d1o0NymCQu6Rp5GbX8_GYVw=/original.webp"},{"id":"5d9e74fb-7145-4e6a-a991-c0e45f8c372c","slug":"azizi-riviera-22","name":"Azizi Riviera 22","developer":"Azizi Developments","area":"Meydan, Meydan One, Azizi Riviera, Azizi Riviera 22","city":"Dubai","lat":25.173572524,"lng":55.30593451113,"minPriceAed":600000,"handover":"Q2 2023","imageUrl":"https://new-projects-media.propertyfinder.com/project/5d9e74fb-7145-4e6a-a991-c0e45f8c372c/gallery/image/QX0lZaGzFQ_vYFGQqnV3d1o0NymCQu6Rp5GbX8_GYVw=/original.webp"},{"id":"ae9b88dd-e942-4dd4-92c6-f8a4b3c205af","slug":"azizi-riviera-24","name":"Azizi Riviera 24","developer":"Azizi Developments","area":"Meydan, Meydan One, Azizi Riviera, Azizi Riviera 24","city":"Dubai","lat":25.173689,"lng":55.31166,"minPriceAed":561000,"handover":"Q1 2023","imageUrl":"https://new-projects-media.propertyfinder.com/project/ae9b88dd-e942-4dd4-92c6-f8a4b3c205af/gallery/image/CpSsf_9T4UdpaiIR8dRoauo8vAgHffVqocxruAssl7o=/original.webp"},{"id":"7dccbb3e-e0cc-4ef8-b2bd-d1f1d463569a","slug":"azizi-riviera-25","name":"Azizi Riviera 25","developer":"Azizi Developments","area":"Meydan, Meydan One, Azizi Riviera, Azizi Riviera 25","city":"Dubai","lat":25.172891,"lng":55.306293,"minPriceAed":561000,"handover":"Q2 2023","imageUrl":"https://new-projects-media.propertyfinder.com/project/7dccbb3e-e0cc-4ef8-b2bd-d1f1d463569a/gallery/image/QX0lZaGzFQ_vYFGQqnV3d1o0NymCQu6Rp5GbX8_GYVw=/original.webp"},{"id":"c2d85e1d-4db8-4628-b1c1-55d2d324b312","slug":"azizi-riviera-26","name":"Azizi Riviera 26","developer":"Azizi Developments","area":"Meydan, Meydan One, Azizi Riviera, Azizi Riviera 26","city":"Dubai","lat":25.173241,"lng":55.304185,"minPriceAed":570000,"handover":"Q2 2023","imageUrl":"https://new-projects-media.propertyfinder.com/project/c2d85e1d-4db8-4628-b1c1-55d2d324b312/gallery/image/D5lgCtqpmWLPRI5f_ztqw0EMeY5b3BbaW78UAJP709E=/original.webp"},{"id":"ccd0a6e6-d1c0-4982-b3d7-89eae2d61389","slug":"azizi-riviera-27","name":"Azizi Riviera 27","developer":"Azizi Developments","area":"Meydan, Meydan One, Azizi Riviera, Azizi Riviera 27","city":"Dubai","lat":25.157472,"lng":55.301908,"minPriceAed":700236,"handover":"Q2 2023","imageUrl":"https://new-projects-media.propertyfinder.com/project/ccd0a6e6-d1c0-4982-b3d7-89eae2d61389/gallery/image/N2TjuY8RPXBXiEwFASVcG8Cx8cKf8ZF5GOrrtjq0VqA=/original.webp"},{"id":"6ee04953-9398-4388-85c1-bdfd5692dec1","slug":"azizi-riviera-28","name":"Azizi Riviera 28","developer":"Azizi Developments","area":"Meydan, Meydan One, Azizi Riviera, Azizi Riviera 28","city":"Dubai","lat":25.172433,"lng":55.30603,"minPriceAed":561000,"handover":"Q3 2023","imageUrl":"https://new-projects-media.propertyfinder.com/project/6ee04953-9398-4388-85c1-bdfd5692dec1/gallery/image/Lt8QW83mxKH8IlX08TKYAT02dzhlAL0rCyPiG5abx-c=/original.webp"},{"id":"8bcdcd42-6fe5-4caf-856a-ea2ad51c90cf","slug":"azizi-riviera-29","name":"AZIZI Riviera 29","developer":"Azizi Developments","area":"Meydan, Meydan One, Azizi Riviera, Azizi Riviera 29","city":"Dubai","lat":25.1735,"lng":55.306104,"minPriceAed":1200000,"handover":"Q2 2023","imageUrl":"https://new-projects-media.propertyfinder.com/project/8bcdcd42-6fe5-4caf-856a-ea2ad51c90cf/gallery/image/mV8tgLsK_4w6U_84eDAHnTNK7nav4wP-Pr58ztZwdj8=/original.webp"},{"id":"36015707-d136-44cf-b844-e08cce3b6f08","slug":"azizi-riviera-3","name":"Azizi Riviera 3","developer":"Azizi Developments","area":"Meydan, Meydan One, Azizi Riviera, Azizi Riviera 3","city":"Dubai","lat":25.17312141358,"lng":55.30098117439,"minPriceAed":561000,"handover":"Q2 2024","imageUrl":"https://new-projects-media.propertyfinder.com/project/36015707-d136-44cf-b844-e08cce3b6f08/gallery/image/QzuR6Ga4VyVgeBGQuFOLqh3P0oGJ_7obAYgBvK4sXfo=/original.webp"},{"id":"13786943-1a96-4169-b32e-21afbbec3bef","slug":"azizi-riviera-30","name":"Azizi Riviera 30","developer":"Azizi Developments","area":"Meydan, Meydan One, Azizi Riviera, Azizi Riviera 30","city":"Dubai","lat":25.1711633,"lng":55.3065799,"minPriceAed":620000,"handover":"Q2 2023","imageUrl":"https://new-projects-media.propertyfinder.com/project/13786943-1a96-4169-b32e-21afbbec3bef/gallery/image/iCdaTfZQHKJAyR16eBho3_BrkaDn8ZQxZ6wsE0IzWzo=/original.webp"},{"id":"f892cb39-eeec-46ef-be62-b158938ae8b5","slug":"azizi-riviera-31","name":"Azizi Riviera 31","developer":"Azizi Developments","area":"Meydan, Meydan One, Azizi Riviera","city":"Dubai","lat":25.17372788145,"lng":55.31094144099,"minPriceAed":779000,"handover":"Q2 2023","imageUrl":"https://new-projects-media.propertyfinder.com/project/f892cb39-eeec-46ef-be62-b158938ae8b5/gallery/image/ZCpByVKqSHZzEXHGP_IKciFxrUHZwrjO_e98gMvpuRY=/original.webp"},{"id":"2dd017a2-94c6-418e-90d5-3df2382e2bd9","slug":"azizi-riviera-32","name":"Azizi Riviera 32","developer":"Azizi Developments","area":"Meydan, Meydan One, Azizi Riviera, Azizi Riviera 32","city":"Dubai","lat":25.171416,"lng":55.315235,"minPriceAed":700134,"handover":"Q2 2023","imageUrl":"https://new-projects-media.propertyfinder.com/project/2dd017a2-94c6-418e-90d5-3df2382e2bd9/gallery/image/nO460697Tz9NhRGRzH805xzKGyGwtpDdeslYbNLvdHs=/original.webp"},{"id":"49666025-e191-4ad0-92a3-634ad7770918","slug":"azizi-riviera-33","name":"Azizi Riviera 33","developer":"Azizi Developments","area":"Meydan, Meydan One, Azizi Riviera, Azizi Riviera 33","city":"Dubai","lat":25.1712728,"lng":55.304299,"minPriceAed":561000,"handover":"Q3 2023","imageUrl":"https://new-projects-media.propertyfinder.com/project/49666025-e191-4ad0-92a3-634ad7770918/gallery/image/HBoQXrCTevWnSgD4ECM2xgpbQd2_68KpHvf-zO8MIkw=/original.webp"},{"id":"dee204ac-c926-424b-afc2-9db06e437791","slug":"azizi-riviera-34","name":"Azizi Riviera 34","developer":"Azizi Developments","area":"Meydan, Meydan One, Azizi Riviera, Azizi Riviera 34","city":"Dubai","lat":25.1729219625,"lng":55.31005438418,"minPriceAed":555000,"handover":"Q3 2023","imageUrl":"https://new-projects-media.propertyfinder.com/project/dee204ac-c926-424b-afc2-9db06e437791/gallery/image/QX0lZaGzFQ_vYFGQqnV3d1o0NymCQu6Rp5GbX8_GYVw=/original.webp"},{"id":"02043c88-2ed4-4f7e-8fd7-51c25d95f1f0","slug":"azizi-riviera-37","name":"Azizi Riviera 37","developer":"Azizi Developments","area":"Meydan, Meydan One, Azizi Riviera, Azizi Riviera 37","city":"Dubai","lat":25.17460176344,"lng":55.3107556142,"minPriceAed":650000,"handover":"Q1 2024","imageUrl":"https://new-projects-media.propertyfinder.com/project/02043c88-2ed4-4f7e-8fd7-51c25d95f1f0/gallery/image/CpTAnfMXyzGdDj-KE0FwscpvlBzZPlEL-BGnEeRJYW4=/original.webp"},{"id":"9010e52f-bf19-47e7-a689-f575366b3bb6","slug":"azizi-riviera-39","name":"AZIZI Riviera 39","developer":"Azizi Developments","area":"Meydan, Meydan One, Azizi Riviera, Azizi Riviera 39","city":"Dubai","lat":25.173825,"lng":55.310087,"minPriceAed":0,"handover":"Q1 2024","imageUrl":"https://new-projects-media.propertyfinder.com/project/9010e52f-bf19-47e7-a689-f575366b3bb6/gallery/image/s8EQK0o6mLiUGIGdlN-satTS5zwaS0M0J9dVa_8EnD8=/original.webp"},{"id":"b3716488-410c-4219-be96-c94dffa6d8a4","slug":"azizi-riviera-40","name":"Azizi Riviera 40","developer":"Azizi Developments","area":"Meydan, Meydan One, Azizi Riviera, Azizi Riviera 40","city":"Dubai","lat":25.174753,"lng":55.311303,"minPriceAed":561000,"handover":"Q2 2024","imageUrl":"https://new-projects-media.propertyfinder.com/project/b3716488-410c-4219-be96-c94dffa6d8a4/gallery/image/shaM8Y0GIbqUvMEt9uDNfJ5EJssLbbBmHz84v3ab3UA=/original.webp"},{"id":"6a36910c-86c1-4c99-9b10-26478eefb2c3","slug":"azizi-riviera-43","name":"Azizi Riviera 43","developer":"Azizi Developments","area":"Meydan, Meydan One, Azizi Riviera, Azizi Riviera 43","city":"Dubai","lat":25.17314399224,"lng":55.30949700782,"minPriceAed":561000,"handover":"Q1 2024","imageUrl":"https://new-projects-media.propertyfinder.com/project/6a36910c-86c1-4c99-9b10-26478eefb2c3/gallery/image/aXiln62lpZoNo2UI17llu21ePoXxnfNzh3JTH-hxkWI=/original.webp"},{"id":"b22a9df2-f1b2-489b-8e18-3fe267c2b555","slug":"azizi-riviera-44","name":"Azizi Riviera 44","developer":"Azizi Developments","area":"Meydan, Meydan One, Azizi Riviera, Azizi Riviera 44","city":"Dubai","lat":25.172585,"lng":55.309474,"minPriceAed":561000,"handover":"Q1 2024","imageUrl":"https://new-projects-media.propertyfinder.com/project/b22a9df2-f1b2-489b-8e18-3fe267c2b555/gallery/image/3DPUlQSMTaL3EfAhGvBMY9n1nUDU0TA1vQSXGO79jec=/original.webp"},{"id":"6c9bd3d6-be5f-4678-aafc-4f116546d107","slug":"azizi-riviera-48","name":"Azizi Riviera 48","developer":"Azizi Developments","area":"Meydan, Meydan One, Azizi Riviera, Azizi Riviera 48","city":"Dubai","lat":25.172819,"lng":55.313481,"minPriceAed":1095000,"handover":"Q1 2024","imageUrl":"https://new-projects-media.propertyfinder.com/project/6c9bd3d6-be5f-4678-aafc-4f116546d107/gallery/image/VcbQeVz3FR90LKS-DOllyUqeix4-2hhpj9Jz389t1hA=/original.webp"},{"id":"506d4437-849e-4a14-9c67-fd00b65799a3","slug":"azizi-riviera-49","name":"Azizi Riviera 49","developer":"Azizi Developments","area":"Meydan, Meydan One, Azizi Riviera, Azizi Riviera 49","city":"Dubai","lat":25.17239,"lng":55.313753,"minPriceAed":1610000,"handover":"Q1 2027","imageUrl":"https://new-projects-media.propertyfinder.com/project/506d4437-849e-4a14-9c67-fd00b65799a3/gallery/image/EyfBaSHNhoLKnYlba1CxBK0MNlJw2_uR7Yxao6SS5Pc=/original.webp"},{"id":"3f7ef25e-4c02-47f5-af2e-8544527bc83d","slug":"azizi-riviera-5","name":"Azizi Riviera 5","developer":"Azizi Developments","area":"Meydan, Meydan One, Azizi Riviera, Azizi Riviera 5","city":"Dubai","lat":25.17377658233,"lng":55.30045509338,"minPriceAed":709999,"handover":"Q2 2023","imageUrl":"https://new-projects-media.propertyfinder.com/project/3f7ef25e-4c02-47f5-af2e-8544527bc83d/gallery/image/fRyHNbV8auKJLTccRby4Q8ao6bzFyPOueyQ7QwoZmXg=/original.webp"},{"id":"ba2ccbd3-da50-4777-a624-7164da638294","slug":"azizi-riviera-50","name":"Azizi Riviera 50","developer":"Azizi Developments","area":"Meydan, Meydan One, Azizi Riviera, Azizi Riviera 50","city":"Dubai","lat":25.17397239322,"lng":55.31345,"minPriceAed":1127555,"handover":"Q4 2025","imageUrl":"https://new-projects-media.propertyfinder.com/project/ba2ccbd3-da50-4777-a624-7164da638294/gallery/image/jpzxZ4S57YdOd4yEUfDGG7_qczUYaW0bYlB_geAL3hM=/original.webp"},{"id":"99744a13-e2e0-4c43-ab22-e8166a53a984","slug":"azizi-riviera-53","name":"Azizi Riviera 53","developer":"Azizi Developments","area":"Meydan, Meydan One, Azizi Riviera, Azizi Riviera 53","city":"Dubai","lat":25.176576,"lng":55.316312,"minPriceAed":510000,"handover":"Q1 2027","imageUrl":"https://new-projects-media.propertyfinder.com/project/99744a13-e2e0-4c43-ab22-e8166a53a984/gallery/image/EyfBaSHNhoLKnYlba1CxBK0MNlJw2_uR7Yxao6SS5Pc=/original.webp"},{"id":"5930217e-b733-4a1d-abd2-b37ad8acbe0d","slug":"azizi-riviera-54","name":"Azizi Riviera 54","developer":"Azizi Developments","area":"Meydan, Meydan One, Azizi Riviera, Azizi Riviera 54","city":"Dubai","lat":25.176466,"lng":55.317792,"minPriceAed":660000,"handover":"Q2 2027","imageUrl":"https://new-projects-media.propertyfinder.com/project/5930217e-b733-4a1d-abd2-b37ad8acbe0d/gallery/image/5CLzlKY4TJLzu4lOgaAR81PDPmJ0CMHzdZz8usMf8T4=/original.webp"},{"id":"f0f6bc50-4fbd-427b-8f9a-16abea0469d9","slug":"azizi-riviera-55","name":"Azizi Riviera 55","developer":"Azizi Developments","area":"Meydan, Meydan One, Azizi Riviera, Azizi Riviera 55","city":"Dubai","lat":25.176081,"lng":55.317243,"minPriceAed":1240000,"handover":"Q1 2027","imageUrl":"https://new-projects-media.propertyfinder.com/project/f0f6bc50-4fbd-427b-8f9a-16abea0469d9/gallery/image/0gIHwIoFfrMFuSS0bq5WCDGXintFVuJljhcmv5-VRKQ=/original.webp"},{"id":"a77934e6-f7d9-4547-8ad8-5e3989e38d45","slug":"azizi-riviera-56","name":"Azizi Riviera 56","developer":"Azizi Developments","area":"Meydan, Meydan One, Azizi Riviera, Azizi Riviera 56","city":"Dubai","lat":25.175391,"lng":55.316216,"minPriceAed":5370000,"handover":"Q1 2027","imageUrl":"https://new-projects-media.propertyfinder.com/project/a77934e6-f7d9-4547-8ad8-5e3989e38d45/gallery/image/0gIHwIoFfrMFuSS0bq5WCDGXintFVuJljhcmv5-VRKQ=/original.webp"},{"id":"95b252c2-309d-4e9f-b3c5-a8d58ccf2a0f","slug":"azizi-riviera-58","name":"Azizi Riviera 58","developer":"Azizi Developments","area":"Meydan, Meydan One, Azizi Riviera, Azizi Riviera 58","city":"Dubai","lat":25.174982,"lng":55.315079,"minPriceAed":1200000,"handover":"Q2 2027","imageUrl":"https://new-projects-media.propertyfinder.com/project/95b252c2-309d-4e9f-b3c5-a8d58ccf2a0f/gallery/image/vFb0cZGmaJlRWvGRi9LqJ6wsn58wIzeLo1qGNjXAg1I=/original.webp"},{"id":"4e63a6be-83c7-4bb3-8612-392a2eb76689","slug":"azizi-riviera-59","name":"Azizi Riviera 59","developer":"Azizi Developments","area":"Meydan, Meydan One, Azizi Riviera, Azizi Riviera 59","city":"Dubai","lat":25.17471,"lng":55.314478,"minPriceAed":506200,"handover":"Q4 2024","imageUrl":"https://new-projects-media.propertyfinder.com/project/4e63a6be-83c7-4bb3-8612-392a2eb76689/gallery/image/J4EFrU1nXcl3g_UvTK7Fa7Ak2WvAT5RuDgUuOjnLgvc=/original.webp"},{"id":"8eed8378-8da8-42f8-b120-5b250f0ad3be","slug":"azizi-riviera-60","name":"Azizi Riviera 60","developer":"Azizi Developments","area":"Meydan, Meydan One, Azizi Riviera, Azizi Riviera 60","city":"Dubai","lat":25.174604,"lng":55.315225,"minPriceAed":1195000,"handover":"Q1 2027","imageUrl":"https://new-projects-media.propertyfinder.com/project/8eed8378-8da8-42f8-b120-5b250f0ad3be/gallery/image/Pea2anBPjCVTgSiCmn7M32z4-49aMoelhM_1xpOLM5s=/original.webp"},{"id":"30148d07-8af0-42c1-b08e-3447fb0d909e","slug":"azizi-riviera-61","name":"Azizi Riviera 61","developer":"Azizi Developments","area":"Meydan, Meydan One, Azizi Riviera, Azizi Riviera 61","city":"Dubai","lat":25.17413826204,"lng":55.31411995366,"minPriceAed":1315000,"handover":"Q3 2024","imageUrl":"https://new-projects-media.propertyfinder.com/project/30148d07-8af0-42c1-b08e-3447fb0d909e/gallery/image/ed83x2nfBRCX1AdUIfJozAhpFwQQ4hpr0ZmzWIC42z4=/original.webp"},{"id":"1b21b361-fb7e-4ed6-a0b9-eb0558af9d36","slug":"azizi-riviera-63","name":"Azizi Riviera 63","developer":"Azizi Developments","area":"Meydan, Meydan One, Azizi Riviera, Azizi Riviera 63","city":"Dubai","lat":25.1741179699,"lng":55.31407599262,"minPriceAed":1352000,"handover":"Q3 2024","imageUrl":"https://new-projects-media.propertyfinder.com/project/1b21b361-fb7e-4ed6-a0b9-eb0558af9d36/gallery/image/5E9gm8cop44NUO8gN1fv9xkg3bl-pZzPDAubc7w1sdE=/original.webp"},{"id":"f29daab6-e9a7-4284-8870-1be9fbf968ca","slug":"azizi-riviera-64","name":"Azizi Riviera 64","developer":"Azizi Developments","area":"Meydan, Meydan One, Azizi Riviera, Azizi Riviera 64","city":"Dubai","lat":25.173395,"lng":55.315013,"minPriceAed":480000,"handover":"Q2 2027","imageUrl":"https://new-projects-media.propertyfinder.com/project/f29daab6-e9a7-4284-8870-1be9fbf968ca/gallery/image/Z5qRTDPr6UY5eXQuG7peeHcRpUUHUp8Hq66lGkEOxwc=/original.webp"},{"id":"44444187-f5f1-475e-805f-3265f3ed22e4","slug":"azizi-riviera-65","name":"Azizi Riviera 65","developer":"Azizi Developments","area":"Meydan, Meydan One, Azizi Riviera, Azizi Riviera 65","city":"Dubai","lat":25.172988,"lng":55.314575,"minPriceAed":561000,"handover":"Q1 2025","imageUrl":"https://new-projects-media.propertyfinder.com/project/44444187-f5f1-475e-805f-3265f3ed22e4/gallery/image/uojiN28LVcPy8WKewswdSNP_e87WgaCrSJCw_SawywI=/original.webp"},{"id":"1c5ef125-307d-4cfb-810c-1fe02aed6685","slug":"azizi-riviera-66","name":"Azizi Riviera 66","developer":"Azizi Developments","area":"Meydan, Meydan One, Azizi Riviera, Azizi Riviera 66","city":"Dubai","lat":25.172862,"lng":55.315228,"minPriceAed":1181000,"handover":"Q2 2027","imageUrl":"https://new-projects-media.propertyfinder.com/project/1c5ef125-307d-4cfb-810c-1fe02aed6685/gallery/image/FpF95J-dH5IP-4YPOYvwUDPuNU5UhXIG_QCiLxaeUW4=/original.webp"},{"id":"c82d0dda-02d3-4b4b-b5e5-360df4a9e267","slug":"azizi-riviera-67","name":"Azizi Riviera 67","developer":"Azizi Developments","area":"Meydan, Meydan One, Azizi Riviera, Azizi Riviera 67","city":"Dubai","lat":25.17252400771,"lng":55.31476736069,"minPriceAed":890000,"handover":"Q1 2025","imageUrl":"https://new-projects-media.propertyfinder.com/project/c82d0dda-02d3-4b4b-b5e5-360df4a9e267/gallery/image/zUd-gXOuDOxr6RGMqLtO7ZwkwGQVQwJRB7WiOrA39Kk=/original.webp"},{"id":"cf83a5d1-1e92-46eb-b094-acca510fc478","slug":"azizi-riviera-68","name":"Azizi Riviera 68","developer":"Azizi Developments","area":"Meydan, Meydan One, Azizi Riviera, Azizi Riviera 68","city":"Dubai","lat":25.172511,"lng":55.315409,"minPriceAed":1099000,"handover":"Q2 2027","imageUrl":"https://new-projects-media.propertyfinder.com/project/cf83a5d1-1e92-46eb-b094-acca510fc478/gallery/image/EyfBaSHNhoLKnYlba1CxBK0MNlJw2_uR7Yxao6SS5Pc=/original.webp"},{"id":"d090c774-7dad-4b9e-9ab6-3d04e8314fc2","slug":"azizi-riviera-69","name":"Azizi Riviera 69","developer":"Azizi Developments","area":"Meydan, Meydan One, Azizi Riviera, Azizi Riviera 69","city":"Dubai","lat":25.171931,"lng":55.31461,"minPriceAed":1165000,"handover":"Q1 2026","imageUrl":"https://new-projects-media.propertyfinder.com/project/d090c774-7dad-4b9e-9ab6-3d04e8314fc2/gallery/image/O2r91gldf--moyBLPIVluN_rSLSYv2BOL-trTXMWyso=/original.webp"},{"id":"191d8762-a9e6-4419-ae95-654b09ab81e7","slug":"azizi-riviera-8","name":"Azizi Riviera 8","developer":"Azizi Developments","area":"Meydan, Meydan One, Azizi Riviera, Azizi Riviera 8","city":"Dubai","lat":25.17354400738,"lng":55.30268137229,"minPriceAed":585000,"handover":"Q2 2023","imageUrl":"https://new-projects-media.propertyfinder.com/project/191d8762-a9e6-4419-ae95-654b09ab81e7/gallery/image/NZ0FOj2WEbZWhx4xewhOhVqnvTdXgMZlsqyRDCJM43E=/original.webp"},{"id":"ff269557-a562-49a8-afa7-afb41dfada26","slug":"azizi-riviera-9","name":"Azizi Riviera 9","developer":"Azizi Developments","area":"Meydan, Meydan One, Azizi Riviera, Azizi Riviera 9","city":"Dubai","lat":25.17352458768,"lng":55.30358259452,"minPriceAed":560000,"handover":"Q2 2023","imageUrl":"https://new-projects-media.propertyfinder.com/project/ff269557-a562-49a8-afa7-afb41dfada26/gallery/image/jDHVx__ivQhMAo7gobzHygKi4PzY-RK6NPZsN-kdsX0=/original.webp"},{"id":"9d381621-4c49-4025-8979-c06fe9c3c610","slug":"azizi-riviera-azure","name":"Azizi Riviera Azure","developer":"Azizi Developments","area":"Meydan, Meydan One, Azizi Riviera, Azizi Riviera Azure","city":"Dubai","lat":25.17546229354,"lng":55.31393667843,"minPriceAed":1901000,"handover":"Q4 2024","imageUrl":"https://new-projects-media.propertyfinder.com/project/9d381621-4c49-4025-8979-c06fe9c3c610/gallery/image/3_I_zCoixoQtgo4kBM4oT2rG0TM8JO-xpI2WXEEjtWQ=/original.webp"},{"id":"a79bb83a-352e-440a-b2ae-41aa5af901d5","slug":"azizi-riviera-beachfront","name":"Azizi Riviera Beachfront","developer":"Azizi Developments","area":"Meydan, Meydan One, Azizi Riviera, Azizi Riviera Beachfront","city":"Dubai","lat":25.1739726,"lng":55.3113653,"minPriceAed":1260000,"handover":"Q4 2023","imageUrl":"https://new-projects-media.propertyfinder.com/project/a79bb83a-352e-440a-b2ae-41aa5af901d5/gallery/image/c3WcUwkqXTlg9QojWUTs7gdDRhNKwIPaX_6PQ5Dy7m0=/original.webp"},{"id":"17d108e7-6510-4f92-a9f5-df700562a9ec","slug":"azizi-riviera-reve","name":"Azizi Riviera Reve","developer":"Azizi Developments","area":"Meydan, Meydan One, Azizi Riviera, Azizi Riviera Reve","city":"Dubai","lat":25.174534,"lng":55.312966,"minPriceAed":1400000,"handover":"Q4 2024","imageUrl":"https://new-projects-media.propertyfinder.com/project/17d108e7-6510-4f92-a9f5-df700562a9ec/gallery/image/lLFEnSYokJx_cmmpnfD0xitKVMf7xu1_mvL7E7shBFk=/original.webp"},{"id":"ac756793-3441-4916-834a-263b4d80befc","slug":"azizi-ruby","name":"Azizi Ruby","developer":"Azizi Developments","area":"Jumeirah Village Circle, District 15, Azizi Ruby","city":"Dubai","lat":25.05963050255,"lng":55.20393418651,"minPriceAed":618000,"handover":"Q1 2028","imageUrl":"https://new-projects-media.propertyfinder.com/project/ac756793-3441-4916-834a-263b4d80befc/gallery/image/F6ORlzjfbfwVodZn1ZnTj0_gZ6kfJ2zz_nLu3YHoQqo=/original.webp"},{"id":"1f0b2219-ad92-4699-b305-ef84f8c97e0e","slug":"azizi-sakandar","name":"Azizi Sikander","developer":"Azizi Developments","area":"Al Furjan, Azizi Sakandar","city":"Dubai","lat":25.0346158932,"lng":55.1447689211,"minPriceAed":550000,"handover":"Q2 2027","imageUrl":"/cdn/projects/azizi-sakandar/hero.webp"},{"id":"8371687a-b719-4ec9-829f-1fc68deea523","slug":"azizi-venice","name":"Azizi Venice","developer":"Azizi Developments","area":"Dubai South (Dubai World Central), Azizi Venice","city":"Dubai","lat":24.84429821636,"lng":55.14280934421,"minPriceAed":747000,"handover":"Q4 2026","imageUrl":"https://new-projects-media.propertyfinder.com/project/8371687a-b719-4ec9-829f-1fc68deea523/gallery/image/OoDvVwglcTFZ91eOrkjblX355P6MfspDo0O4nKZbx_U=/original.webp"},{"id":"d33a8843-52f2-4d61-ad82-62fef4e4fbe7","slug":"azizi-venice-10","name":"Azizi Venice 10","developer":"Azizi Developments","area":"Dubai South (Dubai World Central), Azizi Venice, Azizi Venice 10","city":"Dubai","lat":24.84318056819,"lng":55.14115639824,"minPriceAed":670000,"handover":"Q4 2026","imageUrl":"https://new-projects-media.propertyfinder.com/project/d33a8843-52f2-4d61-ad82-62fef4e4fbe7/gallery/image/DfRqG3Q3sjPjnVB2N-YIhC1nsr7yoMhO9gtxz7FaBlM=/original.webp"},{"id":"b2325f5b-8133-4e33-a42e-d9906d10aaad","slug":"azizi-venice-11","name":"Azizi Venice 11","developer":"Azizi Developments","area":"Dubai South (Dubai World Central), Azizi Venice, Azizi Venice 11","city":"Dubai","lat":24.84318056819,"lng":55.14115639824,"minPriceAed":670000,"handover":"Q3 2027","imageUrl":"https://new-projects-media.propertyfinder.com/project/b2325f5b-8133-4e33-a42e-d9906d10aaad/gallery/image/jt8akDLKrfQPJ2KHigfWe7sw9c9crvbbPmc0-hIzXAY=/original.webp"},{"id":"9428eeda-ccdc-40d0-81c6-a87be486d852","slug":"azizi-venice-12","name":"Azizi Venice 12","developer":"Azizi Developments","area":"Dubai South (Dubai World Central), Azizi Venice, Azizi Venice 12","city":"Dubai","lat":24.84318056819,"lng":55.14115639824,"minPriceAed":650000,"handover":"Q3 2027","imageUrl":"https://new-projects-media.propertyfinder.com/project/9428eeda-ccdc-40d0-81c6-a87be486d852/gallery/image/g2TY8r-kt51caFjp43Ox4UuB1NKpTJAdrNTruUaLBn8=/original.webp"},{"id":"79e309d3-cd2e-489f-8a7f-a2f770724c9d","slug":"azizi-venice-13","name":"Azizi Venice 13","developer":"Azizi Developments","area":"Dubai South (Dubai World Central), Azizi Venice, Azizi Venice 13","city":"Dubai","lat":24.84318056819,"lng":55.14115639824,"minPriceAed":670000,"handover":"Q3 2027","imageUrl":"https://new-projects-media.propertyfinder.com/project/79e309d3-cd2e-489f-8a7f-a2f770724c9d/gallery/image/VWW2hl-fxefu4Tz2MKhhzH90jd9o__bkbfhB-jCVDLQ=/original.webp"},{"id":"f6207ffe-7f95-4b3d-8419-2d5a793f87a2","slug":"azizi-venice-14","name":"Azizi Venice 14","developer":"Azizi Developments","area":"Dubai South (Dubai World Central), Azizi Venice, Azizi Venice 14","city":"Dubai","lat":24.84318056819,"lng":55.14115639824,"minPriceAed":785000,"handover":"Q2 2026","imageUrl":"https://new-projects-media.propertyfinder.com/project/f6207ffe-7f95-4b3d-8419-2d5a793f87a2/gallery/image/um2mHN1ZMRF0ma1f5-GbL_4KTjts5hN_o6SkisVfG4Q=/original.webp"},{"id":"e6b819fc-e795-4d47-8f9c-f369a15e8321","slug":"azizi-venice-15","name":"Azizi Venice 15","developer":"Azizi Developments","area":"Dubai South (Dubai World Central), Azizi Venice, Azizi Venice 15","city":"Dubai","lat":24.8381752936,"lng":55.135372254,"minPriceAed":619000,"handover":"Q2 2027","imageUrl":"/cdn/projects/azizi-venice-15/gallery/000.webp"},{"id":"29819a66-e50a-4a3b-9b32-880ec725e070","slug":"azizi-venice-16","name":"Azizi Venice 16","developer":"Azizi Developments","area":"Dubai South (Dubai World Central), Azizi Venice, Azizi Venice 16","city":"Dubai","lat":24.843379,"lng":55.141305,"minPriceAed":640000,"handover":"Q2 2027","imageUrl":"https://new-projects-media.propertyfinder.com/project/29819a66-e50a-4a3b-9b32-880ec725e070/gallery/image/VWW2hl-fxefu4Tz2MKhhzH90jd9o__bkbfhB-jCVDLQ=/original.webp"},{"id":"bdfec4c9-943b-4dfb-814f-1904ad0a2ec6","slug":"azizi-venice-2","name":"Azizi Venice 2","developer":"Azizi Developments","area":"Dubai South (Dubai World Central), Azizi Venice, Azizi Venice 2","city":"Dubai","lat":24.84318056819,"lng":55.14115639824,"minPriceAed":670000,"handover":"Q4 2025","imageUrl":"https://new-projects-media.propertyfinder.com/project/bdfec4c9-943b-4dfb-814f-1904ad0a2ec6/gallery/image/Inm2Wmt14WeF5BdqqMhdGR6C1aRMznewMvZsfn_aYgQ=/original.webp"},{"id":"1d667851-a783-4cd8-97f4-01a2d226aea4","slug":"azizi-venice-3","name":"Azizi Venice 3","developer":"Azizi Developments","area":"Dubai South (Dubai World Central), Azizi Venice, Azizi Venice 3","city":"Dubai","lat":24.84318056819,"lng":55.14115639824,"minPriceAed":704000,"handover":"Q4 2025","imageUrl":"https://new-projects-media.propertyfinder.com/project/1d667851-a783-4cd8-97f4-01a2d226aea4/gallery/image/PwweayLYH8v_Xt7hQilLRiRaKjEmixN1zHtxE6do2Ak=/original.webp"},{"id":"14adc875-d8cf-4e37-8fd6-01c73c11e2f3","slug":"azizi-venice-4","name":"Azizi Venice 4","developer":"Azizi Developments","area":"Dubai South (Dubai World Central), Azizi Venice, Azizi Venice 4","city":"Dubai","lat":24.84318056819,"lng":55.14115639824,"minPriceAed":704000,"handover":"Q4 2025","imageUrl":"https://new-projects-media.propertyfinder.com/project/14adc875-d8cf-4e37-8fd6-01c73c11e2f3/gallery/image/Inm2Wmt14WeF5BdqqMhdGR6C1aRMznewMvZsfn_aYgQ=/original.webp"},{"id":"dc129ae5-c921-4fae-b0b4-c33056a596c7","slug":"azizi-venice-5","name":"Azizi Venice 5","developer":"Azizi Developments","area":"Dubai South (Dubai World Central), Azizi Venice, Azizi Venice 5","city":"Dubai","lat":24.84318056819,"lng":55.14115639824,"minPriceAed":559000,"handover":"Q4 2025","imageUrl":"https://new-projects-media.propertyfinder.com/project/dc129ae5-c921-4fae-b0b4-c33056a596c7/gallery/image/KL3HJcjqT0vwL79i0qJZ7JpmPvxR4hTbw4kpQaESY28=/original.webp"},{"id":"0738a95f-3249-43f0-a552-8e0c58870ff2","slug":"azizi-venice-6","name":"Azizi Venice 6","developer":"Azizi Developments","area":"Dubai South (Dubai World Central), Azizi Venice, Azizi Venice 6","city":"Dubai","lat":24.84318056819,"lng":55.14115639824,"minPriceAed":680000,"handover":"Q4 2027","imageUrl":"https://new-projects-media.propertyfinder.com/project/0738a95f-3249-43f0-a552-8e0c58870ff2/gallery/image/PwweayLYH8v_Xt7hQilLRiRaKjEmixN1zHtxE6do2Ak=/original.webp"},{"id":"3b575b6f-f77c-4257-9b34-5c3d6aafd232","slug":"azizi-venice-7","name":"Azizi Venice 7","developer":"Azizi Developments","area":"Dubai South (Dubai World Central), Azizi Venice, Azizi Venice 7","city":"Dubai","lat":24.84318056819,"lng":55.14115639824,"minPriceAed":650000,"handover":"Q1 2026","imageUrl":"https://new-projects-media.propertyfinder.com/project/3b575b6f-f77c-4257-9b34-5c3d6aafd232/gallery/image/zVurMX3vH0gzqnRTKYc_MSRcHPsqpIsmvZB_JOALMbg=/original.webp"},{"id":"f5c56e7e-5daf-45cb-84cf-d39f030a7cab","slug":"azizi-venice-8","name":"Azizi Venice 8","developer":"Azizi Developments","area":"Dubai South (Dubai World Central), Azizi Venice, Azizi Venice 8","city":"Dubai","lat":24.84318056819,"lng":55.14115639824,"minPriceAed":480000,"handover":"Q4 2025","imageUrl":"https://new-projects-media.propertyfinder.com/project/f5c56e7e-5daf-45cb-84cf-d39f030a7cab/gallery/image/SDnXSKjlnjfS78Ql7PJvvMxdzs_zqjuXSsOgt2bZpQs=/original.webp"},{"id":"9da2bf99-3075-47b7-933c-501abbc943c0","slug":"azizi-venice-9","name":"Azizi Venice 9","developer":"Azizi Developments","area":"Dubai South (Dubai World Central), Azizi Venice, Azizi Venice 9","city":"Dubai","lat":24.84318056819,"lng":55.14115639824,"minPriceAed":721000,"handover":"Q4 2026","imageUrl":"https://new-projects-media.propertyfinder.com/project/9da2bf99-3075-47b7-933c-501abbc943c0/gallery/image/TYvQoEPqq5l9oK6zbXN0-OB_CbKoj4ogu4AKl-dCbpI=/original.webp"},{"id":"609095c8-80bb-4a55-8c93-b6e575d6c2f4","slug":"azizi-vista","name":"Azizi Vista","developer":"Azizi Developments","area":"Dubai Studio City, Azizi Vista","city":"Dubai","lat":25.0350713,"lng":55.2342206,"minPriceAed":1170000,"handover":"Q2 2025","imageUrl":"https://new-projects-media.propertyfinder.com/project/609095c8-80bb-4a55-8c93-b6e575d6c2f4/gallery/image/0mRArk2ZpyDthpdBamioxZRvOG2E5C4Usdn1jYlS_7s=/original.webp"},{"id":"93121c27-c937-4dba-b491-82038daeebfc","slug":"azizi-wares","name":"Azizi Wares","developer":"Azizi Developments","area":"Downtown Jebel Ali, Azizi Wares","city":"Dubai","lat":24.9546495201,"lng":55.0778916831,"minPriceAed":555000,"handover":"Q1 2028","imageUrl":"https://new-projects-media.propertyfinder.com/project/93121c27-c937-4dba-b491-82038daeebfc/gallery/image/2VkaPsJQWyW21Wc1SogeD3iRl9h68_ZKr5E5Uhu_Hjg=/original.webp"},{"id":"b9c80c85-2788-4f2d-af9f-50633dede06d","slug":"azizi-wasel","name":"Azizi Wasl","developer":"Azizi Developments","area":"Dubai Islands, Azizi Wasel","city":"Dubai","lat":25.29545620471,"lng":55.31952028836,"minPriceAed":1680000,"handover":"Q1 2028","imageUrl":"https://new-projects-media.propertyfinder.com/project/b9c80c85-2788-4f2d-af9f-50633dede06d/gallery/image/buV43CGvOlRgRCgurqS25JDy2vyTK3s-ttfnP5pWhaU=/original.webp"},{"id":"c4533215-686d-4a64-8ee3-216649754ffd","slug":"azizi-zain","name":"Azizi Zain","developer":"Azizi Developments","area":"Al Furjan, Azizi Zain","city":"Dubai","lat":25.04036105954,"lng":55.13830045364,"minPriceAed":1050000,"handover":"Q4 2027","imageUrl":"https://new-projects-media.propertyfinder.com/project/c4533215-686d-4a64-8ee3-216649754ffd/gallery/image/e8B002ra5nTy27LbZsaW80_LOowRTnCXtTyrCsO5p0U=/original.webp"},{"id":"a61f8e65-e61f-437b-9e92-daebffb851cb","slug":"azra-residence","name":"Azra Residence","developer":"Enaam Properties","area":"Dubai Land Residence Complex, Azra Residence","city":"Dubai","lat":25.0902317,"lng":55.3834874,"minPriceAed":970000,"handover":"Q2 2027","imageUrl":"/cdn/projects/azra-residence/gallery/000.webp"},{"id":"14f6131f-9125-44f9-8c52-5c8bd4de0082","slug":"azul-tower","name":"Azul Tower","developer":"Aldar Properties PJSC","area":"Dubai Land, Athlon by Aldar, Rise by Athlon 1, Azul Tower","city":"Dubai","lat":25.0588737,"lng":55.3053533,"minPriceAed":1350000,"handover":"Q4 2029","imageUrl":"https://new-projects-media.propertyfinder.com/project/14f6131f-9125-44f9-8c52-5c8bd4de0082/gallery/image/MVuY2y-pGf0-zP02h4hwafnDOt08i6-gd74M3nHW4Fs=/original.webp"},{"id":"3faa637a-79ef-427a-a8c5-68bf8ff5c20e","slug":"azure-blue-villas","name":"Azure Blue Villas","developer":"Nakheel","area":"Palm Jebel Ali, The Beach Collection Villas, Villa Azure Blue","city":"Dubai","lat":25.0067002914,"lng":54.98558795054,"minPriceAed":18000000,"handover":"Q3 2023","imageUrl":"https://new-projects-media.propertyfinder.com/project/3faa637a-79ef-427a-a8c5-68bf8ff5c20e/gallery/image/sS3aXq6fs9RMPXwS2yNRGyYJyc9jF2qTH2WJyAoqLjM=/original.webp"},{"id":"fc482f4c-43a7-4fea-ab2a-15d8240c6945","slug":"azure-by-lapis","name":"Azure by Lapis","developer":"Lapis Properties","area":"RAK Central, Azure By Lapis","city":"Ras Al Khaimah","lat":25.6899430487,"lng":55.7993100064,"minPriceAed":790000,"handover":"Q4 2028","imageUrl":"/cdn/projects/azure-by-lapis/gallery/000.webp"},{"id":"ccfff306-b643-4a54-ba3e-c848e4a789c3","slug":"bab-al-qasr-garden-residences-65","name":"Bab Al Qasr Garden Residences 65","developer":"Burtville","area":"Masdar City, Bab Al Qasr Garden Residence 66","city":"Abu Dhabi","lat":24.430949,"lng":54.615037,"minPriceAed":2000000,"handover":"Q1 2030","imageUrl":"/cdn/projects/bab-al-qasr-garden-residences-65/hero.webp"},{"id":"d4770b56-6bd0-488e-aa82-ea6c21676b78","slug":"bab-al-qasr-sea-view-51","name":"Bab Al Qasr Sea View 51","developer":"Burtville","area":"Al Raha Beach, Al Seef, Bab Al Qasr Sea View Residence 51","city":"Abu Dhabi","lat":24.4461786823,"lng":54.5869244819,"minPriceAed":4500000,"handover":"Q4 2029","imageUrl":"/cdn/projects/bab-al-qasr-sea-view-51/gallery/000.webp"},{"id":"3f4d547b-25ce-4cbb-bdad-cd0ec751beee","slug":"baccarat-hotel-and-residences-right","name":"Baccarat Hotel & Residences","developer":"H&H Development","area":"Downtown Dubai, Burj Khalifa Area, Baccarat Hotel and Residences","city":"Dubai","lat":25.18939,"lng":55.279135,"minPriceAed":20155572,"handover":"Q2 2027","imageUrl":"https://new-projects-media.propertyfinder.com/project/3f4d547b-25ce-4cbb-bdad-cd0ec751beee/gallery/image/jVxGnVYZPCcTdzCLoyvugAsWyYZaCBbg8t_iqz77lvg=/original.webp"},{"id":"a2a89a2f-1b9e-4538-a8f1-bf8e334c39eb","slug":"baccarat-residences","name":"Baccarat Residences","developer":"Aldar Properties PJSC","area":"Saadiyat Island","city":"Abu Dhabi","lat":24.5302924,"lng":54.4451578,"minPriceAed":16000000,"handover":"Q3 2029","imageUrl":"https://new-projects-media.propertyfinder.com/project/a2a89a2f-1b9e-4538-a8f1-bf8e334c39eb/gallery/image/QLqidVUP6rBDJf5PTx9clhkhY8KoEvLBoZv_3mFFvRw=/original.webp"},{"id":"5af6bc9f-8e9a-4522-a0bc-d141c6ca9902","slug":"bahamas","name":"Bahamas","developer":"Damac Properties","area":"Dubai Land, Damac Islands 2, Bahamas 1","city":"Dubai","lat":25.0263378295,"lng":55.3086703111,"minPriceAed":3913000,"handover":"Q2 2030","imageUrl":"/cdn/projects/bahamas/gallery/000.webp"},{"id":"341d88af-1a9c-4f78-904f-0be8adf9adaa","slug":"bahamas-phase-2","name":"Bahamas Phase 2","developer":"Damac Properties","area":"Dubai Land, Damac Islands 2, Bahamas 2","city":"Dubai","lat":25.0238645925,"lng":55.3192365343,"minPriceAed":2750000,"handover":"Q2 2030","imageUrl":"/cdn/projects/bahamas-phase-2/gallery/000.webp"},{"id":"1c0bb8ef-f125-4432-9303-660ed284c05a","slug":"bahria-town-dubai","name":"Bahria Town Dubai","developer":"BT Holdings","area":"Dubai South (Dubai World Central)","city":"Dubai","lat":24.88975851,"lng":55.1453805,"minPriceAed":550000,"handover":"Q4 2027","imageUrl":"/cdn/projects/bahria-town-dubai/gallery/000.webp"},{"id":"16738dca-f490-4e04-936e-2b3dc59d64ad","slug":"baia-by-reportage","name":"Baia by Reportage","developer":"Reportage Real Estate","area":"Al Raha Beach","city":"Abu Dhabi","lat":24.5223193,"lng":54.6259474,"minPriceAed":3850000,"handover":"Q2 2029","imageUrl":"/cdn/projects/baia-by-reportage/gallery/000.webp"},{"id":"f52c999e-80de-4eb9-813a-bdf2bbc44221","slug":"balghaiylam","name":"Balghaiylam","developer":"Aldar Properties PJSC","area":"Yas Island, Balghaiylam Aldar","city":"Abu Dhabi","lat":24.53664486397,"lng":54.63128374112,"minPriceAed":3000000,"handover":"Q2 2026","imageUrl":"https://new-projects-media.propertyfinder.com/project/f52c999e-80de-4eb9-813a-bdf2bbc44221/gallery/image/DpkkTwlpRf7j4-s3kn3o47t3SqOYIwf8WQb6zuDwDuM=/original.webp"},{"id":"f1c9f709-65ca-44c9-8d6a-77e79959c7e1","slug":"bali-at-damac-islands","name":"Bali at Damac Islands","developer":"Damac Properties","area":"DAMAC Islands, Bali at Damac Islands","city":"Dubai","lat":25.03535162123,"lng":55.30315974603,"minPriceAed":2600000,"handover":"Q4 2028","imageUrl":"https://new-projects-media.propertyfinder.com/project/f1c9f709-65ca-44c9-8d6a-77e79959c7e1/gallery/image/tfw30rmxpw8_4egOTNkO1h--z3exDrp86Ap1gaRA62E=/original.webp"},{"id":"9e303cc3-3933-417b-91e6-eb3182057414","slug":"bali-phase-2-by-damac-properties","name":"Bali Phase 2 at Damac Islands","developer":"Damac Properties","area":"DAMAC Islands, Bali at Damac Islands","city":"Dubai","lat":25.03535162123,"lng":55.30315974603,"minPriceAed":2100000,"handover":"Q4 2028","imageUrl":"https://new-projects-media.propertyfinder.com/project/9e303cc3-3933-417b-91e6-eb3182057414/gallery/image/CTO-XgKba52KB0GDjQtQm4egV50G4lY0X0VV8di5eXo=/original.webp"},{"id":"51b16cda-ae4c-4e84-8f7e-9744f037baa0","slug":"bali-phase-3-by-damac-properties","name":"Bali Phase 3 at Damac Islands","developer":"Damac Properties","area":"DAMAC Islands, Bali at Damac Islands","city":"Dubai","lat":25.03535162123,"lng":55.30315974603,"minPriceAed":2490000,"handover":"Q2 2029","imageUrl":"https://new-projects-media.propertyfinder.com/project/51b16cda-ae4c-4e84-8f7e-9744f037baa0/gallery/image/-WZYwoAxm2mGmbDT5n0xZDBezqhqMUGo595mJKVb_B4=/original.webp"},{"id":"f021dbdf-d99d-457d-a462-d7744fa3ed43","slug":"bali-phase-4-by-damac-properties","name":"Bali Phase 4 at DAMAC Islands","developer":"Damac Properties","area":"DAMAC Islands, Bali at Damac Islands","city":"Dubai","lat":25.03535162123,"lng":55.30315974603,"minPriceAed":2490000,"handover":"Q2 2029","imageUrl":"https://new-projects-media.propertyfinder.com/project/f021dbdf-d99d-457d-a462-d7744fa3ed43/gallery/image/0CPMfeYmqsk1Un71RUEnmpS4nGYT8XHkYuJEK0kWbNI=/original.webp"},{"id":"c442fda7-c05d-4a9b-8f62-b5d72e30357a","slug":"barbados","name":"Barbados","developer":"Damac Properties","area":"Dubai Land, Damac Islands 2, Barbados","city":"Dubai","lat":25.029144,"lng":55.319666,"minPriceAed":4120000,"handover":"Q2 2030","imageUrl":"/cdn/projects/barbados/gallery/000.webp"},{"id":"995b32ed-3c33-469b-bfd9-06153d5e0052","slug":"barbados-2","name":"Barbados 2","developer":"Damac Properties","area":"Dubai Land, Damac Islands 2","city":"Dubai","lat":25.03502,"lng":55.310369,"minPriceAed":3559000,"handover":"Q2 2030","imageUrl":"https://new-projects-media.propertyfinder.com/project/995b32ed-3c33-469b-bfd9-06153d5e0052/gallery/image/EVHl7Bu4wwX4NlM-H4pyFxS0oSUe8aMq7c5Yfgkzzxg=/original.webp"},